[{"business_id":"rBmpy_Y1UbBx8ggHlyb7hA","name":"Arizona Truck Outfitters","address":"625 N Stone Ave","city":"Tucson","state":"AZ","postal_code":"85705","latitude":32.2298719,"longitude":-110.9723419,"stars":4.5,"review_count":10,"is_open":1,"attributes":"","categories":"Automotive, Auto Parts & Supplies, Auto Customization","hours":{"Monday":"0:0-0:0","Tuesday":"8:0-17:0","Wednesday":"8:0-17:0","Thursday":"8:0-17:0","Friday":"8:0-17:0","Saturday":"8:0-14:0","Sunday":"0:0-0:0"}},{"business_id":"IYlUaKC9nICjiWdk-ShPlg","name":"Bub's Cafe","address":"220 2nd St SW","city":"Carmel","state":"IN","postal_code":"46032","latitude":39.976614,"longitude":-86.130124,"stars":4,"review_count":175,"is_open":0,"attributes":"","categories":"Restaurants, Breakfast & Brunch","hours":{"Monday":"7:0-14:0","Tuesday":"7:0-14:0","Wednesday":"7:0-14:0","Thursday":"7:0-14:0","Friday":"7:0-14:0","Saturday":"7:0-14:0","Sunday":"7:0-14:0"}},{"business_id":"KUx_q3nzqUINYgUTrZc9OA","name":"Pita Pit","address":"845 E University Blvd","city":"Tucson","state":"AZ","postal_code":"85719","latitude":32.2319918,"longitude":-110.9584924,"stars":3,"review_count":9,"is_open":0,"attributes":"","categories":"Sandwiches, Restaurants","hours":null},{"business_id":"u4cktT_mzitYexUsr_vKsw","name":"Digestive Diseases Associates of Tampa Bay","address":"876 S Parsons Ave","city":"Brandon","state":"FL","postal_code":"33511","latitude":27.9263727,"longitude":-82.2859355,"stars":2,"review_count":11,"is_open":1,"attributes":"","categories":"Doctors, Health & Medical","hours":null},{"business_id":"xY0jpu0zzGEBr-bGBdPs-w","name":"University Crossings","address":"3175 JFK Boulevard","city":"Philadelphia","state":"PA","postal_code":"19104","latitude":39.95604,"longitude":-75.187797,"stars":1,"review_count":15,"is_open":1,"attributes":"","categories":"Apartments, University Housing, Home Services, Real Estate, Property Management","hours":{"Monday":"9:0-18:0","Tuesday":"9:0-18:0","Wednesday":"9:0-18:0","Thursday":"9:0-18:0","Friday":"9:0-18:0","Saturday":"10:0-17:0","Sunday":"12:0-17:0"}},{"business_id":"F6hASqb_Z5ASXz0-pZFlfA","name":"Edible Arrangements","address":"6153 Ridge Ave, Unit A","city":"Philadelphia","state":"PA","postal_code":"19128","latitude":40.035169,"longitude":-75.216409,"stars":3.5,"review_count":10,"is_open":1,"attributes":"","categories":"Flowers & Gifts, Specialty Food, Shopping, Food, Florists, Gift Shops, Chocolatiers & Shops","hours":{"Monday":"8:0-18:0","Tuesday":"8:0-18:0","Wednesday":"8:0-18:0","Thursday":"8:0-18:0","Friday":"8:0-18:0","Saturday":"8:0-17:0","Sunday":"10:0-15:30"}},{"business_id":"sDOxVq8gQBpHFYtoxwoLWw","name":"Plume Salon","address":"111 E Girard Ave","city":"Philadelphia","state":"PA","postal_code":"19125","latitude":39.9691898,"longitude":-75.1340384,"stars":4.5,"review_count":138,"is_open":1,"attributes":"","categories":"Waxing, Beauty & Spas, Eyelash Service, Used, Vintage & Consignment, Hair Salons, Hair Removal, Makeup Artists, Shopping, Fashion","hours":{"Monday":"12:0-20:0","Tuesday":"10:0-20:0","Wednesday":"10:0-20:0","Thursday":"10:0-20:0","Friday":"10:0-20:0","Saturday":"9:0-19:0","Sunday":"11:0-19:0"}},{"business_id":"ljmtrOC0off1zJwDfLd0eA","name":"25 Roses $10","address":"4405 Kelly Rd","city":"Tampa","state":"FL","postal_code":"33615","latitude":27.982382,"longitude":-82.564456,"stars":3.5,"review_count":5,"is_open":0,"attributes":"","categories":"Flowers & Gifts, Florists, Shopping","hours":null},{"business_id":"xtV9pSVUv8sgqAO7Oxoacw","name":"Eh! Formaggio","address":"5510 Lafayette Rd","city":"Indianapolis","state":"IN","postal_code":"46254","latitude":39.8516197,"longitude":-86.2631756,"stars":4.5,"review_count":6,"is_open":0,"attributes":"","categories":"Restaurants, Pizza","hours":{"Monday":"11:0-21:0","Tuesday":"11:0-21:0","Wednesday":"11:0-21:0","Thursday":"11:0-21:0","Friday":"11:0-22:0","Saturday":"11:0-22:0"}},{"business_id":"-zXuVI8GB6lT4iU6KStOGg","name":"Buck's Automotive Service Center","address":"4360 N 1st Ave","city":"Tucson","state":"AZ","postal_code":"85719","latitude":32.2858808,"longitude":-110.960509,"stars":4,"review_count":42,"is_open":1,"attributes":"","categories":"Tires, Body Shops, Auto Repair, Oil Change Stations, Automotive, Transmission Repair","hours":{"Monday":"7:0-17:0","Tuesday":"7:0-17:0","Wednesday":"7:0-17:0","Thursday":"7:0-17:0","Friday":"7:0-17:0"}},{"business_id":"1DS3z3E0c4rX61vAxrXJuQ","name":"Efi Services","address":"5720 Heebe St","city":"New Orleans","state":"LA","postal_code":"70123","latitude":29.9609441,"longitude":-90.1965195,"stars":4,"review_count":5,"is_open":1,"attributes":"","categories":"Automotive, Auto Repair","hours":{"Monday":"8:0-18:0","Tuesday":"8:0-18:0","Wednesday":"8:0-18:0","Thursday":"8:0-18:0","Friday":"8:0-18:0"}},{"business_id":"nfNOqJTJa-jAHxiyZSyY8g","name":"Woody's RV World","address":"14510 Mark Messier Trail NW","city":"Edmonton","state":"AB","postal_code":"T6V 1H5","latitude":53.6077672,"longitude":-113.5868136,"stars":1,"review_count":9,"is_open":1,"attributes":"","categories":"Automotive, RV Repair, Trailer Dealers, RV Dealers","hours":{"Monday":"9:0-18:0","Tuesday":"9:0-18:0","Wednesday":"9:0-18:0","Thursday":"9:0-18:0","Friday":"9:0-18:0","Saturday":"9:0-17:0"}},{"business_id":"Ktw3a8hXOKL00UCk_1nSEQ","name":"Bully's Sports Bar & Grill","address":"9725 Pyramid Hwy","city":"Sparks","state":"NV","postal_code":"89441","latitude":39.640527,"longitude":-119.71245,"stars":2.5,"review_count":126,"is_open":1,"attributes":"","categories":"Nightlife, Sports Bars, Bars, American (Traditional), Pizza, Restaurants","hours":{"Monday":"8:0-23:0","Tuesday":"8:0-23:0","Wednesday":"8:0-23:0","Thursday":"8:0-23:0","Friday":"8:0-1:0","Saturday":"8:0-1:0","Sunday":"8:0-23:0"}},{"business_id":"ri7LOsk5W_xGVfxhXFHY5Q","name":"Elbow Room Bar","address":"2002 Victorian Ave","city":"Sparks","state":"NV","postal_code":"89431","latitude":39.5354969,"longitude":-119.7707084,"stars":4,"review_count":12,"is_open":1,"attributes":"","categories":"Dive Bars, Seafood, Bars, Restaurants, Cocktail Bars, Nightlife, Music Venues, Casinos, Arts & Entertainment, Sports Bars","hours":{"Monday":"10:0-0:0","Tuesday":"10:0-0:0","Wednesday":"10:0-0:0","Thursday":"10:0-0:0","Friday":"10:0-2:0","Saturday":"10:0-2:0","Sunday":"10:0-0:0"}},{"business_id":"igd4ss0LG6HOLl-kUg3YWQ","name":"Kim's Hair Plus","address":"4898 Nolensville Rd","city":"Nashville","state":"TN","postal_code":"37211","latitude":36.0634408,"longitude":-86.7164586,"stars":3.5,"review_count":5,"is_open":1,"attributes":"","categories":"Jewelry, Cosmetics & Beauty Supply, Hair Extensions, Beauty & Spas, Shopping, Hair Salons","hours":null},{"business_id":"JkyEYN3pCk1B7qRuXAUX4g","name":"Ann's Market","address":"907 Saville Ave","city":"Eddystone","state":"PA","postal_code":"19022","latitude":39.859732246,"longitude":-75.3426356432,"stars":4,"review_count":5,"is_open":0,"attributes":"","categories":"Delis, Food, Coffee & Tea, Restaurants","hours":{"Monday":"6:0-20:0","Tuesday":"6:0-20:0","Wednesday":"6:0-20:0","Thursday":"6:0-20:0","Friday":"6:0-20:0","Saturday":"6:0-20:0","Sunday":"9:0-17:0"}},{"business_id":"SDuso-KRP-gkOqiyNEwd2w","name":"Awe For Pets Sake","address":"38133 12th Ave","city":"Zephyrhills","state":"FL","postal_code":"33542","latitude":28.2399699,"longitude":-82.1853624,"stars":4,"review_count":7,"is_open":1,"attributes":"","categories":"Pet Services, Pet Groomers, Pets","hours":{"Tuesday":"9:0-16:0","Wednesday":"9:0-16:0","Thursday":"9:0-16:0","Friday":"9:0-16:0","Saturday":"9:0-14:0"}},{"business_id":"lsGZzXIJbjrWtcFGLAW5sw","name":"AM@FM","address":"900 Rosa L Parks Blvd","city":"Nashville","state":"TN","postal_code":"37243","latitude":36.169304,"longitude":-86.788028,"stars":4,"review_count":41,"is_open":0,"attributes":"","categories":"American (New), Beer, Wine & Spirits, Food, Sandwiches, Restaurants","hours":{"Monday":"11:0-15:0","Tuesday":"11:0-15:0","Wednesday":"11:0-15:0","Thursday":"11:0-15:0","Friday":"11:0-15:0","Saturday":"11:0-15:0","Sunday":"11:0-15:0"}},{"business_id":"t78hIod30b7nayGHWzLTqg","name":"Bridge Street Soap by Alyese Marie","address":"129 S Main St","city":"New Hope","state":"PA","postal_code":"18938","latitude":40.360168,"longitude":-74.9500805,"stars":4.5,"review_count":10,"is_open":1,"attributes":"","categories":"Cosmetics & Beauty Supply, Beauty & Spas, Skin Care, Shopping","hours":{"Monday":"11:0-17:0","Wednesday":"11:0-17:0","Friday":"11:0-17:0","Saturday":"11:0-18:0","Sunday":"11:0-18:0"}},{"business_id":"EQ-TZ2eeD_E0BHuvoaeG5Q","name":"Milktooth","address":"534 Virginia Ave","city":"Indianapolis","state":"IN","postal_code":"46203","latitude":39.7591692208,"longitude":-86.146494347,"stars":4,"review_count":1379,"is_open":1,"attributes":"","categories":"Beer, Wine & Spirits, Cafes, Coffee & Tea, Restaurants, Food, Breakfast & Brunch, American (New)","hours":{"Monday":"10:0-15:0","Friday":"10:0-15:0","Saturday":"10:0-15:0","Sunday":"10:0-15:0"}},{"business_id":"xnWMM4oCFmGoitOcs81AEA","name":"Whole Body Yoga Studio","address":"103 E Walnut St","city":"North Wales","state":"PA","postal_code":"19454","latitude":40.2111082,"longitude":-75.2779379,"stars":4.5,"review_count":16,"is_open":1,"attributes":"","categories":"Fitness & Instruction, Yoga, Reiki, Health & Medical, Reflexology, Beauty & Spas, Massage, Active Life","hours":{"Monday":"17:0-19:0","Tuesday":"17:0-19:0","Wednesday":"17:0-19:0","Thursday":"17:0-19:0","Friday":"9:30-12:0","Saturday":"8:0-12:0","Sunday":"8:0-12:0"}},{"business_id":"t8-dk8xMqDXlABDgNE6TlA","name":"Jiffy Lube","address":"7212 Veterans Memorial Blvd.","city":"Metairie","state":"LA","postal_code":"70003","latitude":30.0051484,"longitude":-90.2204667,"stars":3,"review_count":24,"is_open":1,"attributes":"","categories":"Automotive, Auto Repair, Oil Change Stations, Windshield Installation & Repair","hours":{"Monday":"0:0-0:0","Tuesday":"8:0-18:0","Wednesday":"8:0-18:0","Thursday":"8:0-18:0","Friday":"8:0-18:0","Saturday":"8:0-18:0","Sunday":"10:0-17:0"}},{"business_id":"A7FRMvjgd_47VaVHmmvRXA","name":"River Heights Dry Cleaners","address":"3918 N Blvd","city":"Tampa","state":"FL","postal_code":"33603","latitude":27.9806464,"longitude":-82.4611097,"stars":2,"review_count":6,"is_open":1,"attributes":"","categories":"Local Services, Laundry Services, Dry Cleaning & Laundry, Dry Cleaning","hours":{"Monday":"7:0-18:30","Tuesday":"7:0-18:30","Wednesday":"7:0-18:30","Thursday":"7:0-18:30","Friday":"7:0-18:30","Saturday":"9:0-16:0"}},{"business_id":"nFAMGKpchpLWZPqSQ5kkcw","name":"Bill Mullen Electric","address":"409 Mercer Drive","city":"Downingtown","state":"PA","postal_code":"19335","latitude":40.028712,"longitude":-75.771946,"stars":4.5,"review_count":9,"is_open":1,"attributes":"","categories":"Generator Installation/Repair, Local Services, Electricians, Home Services","hours":{"Monday":"8:0-18:0","Tuesday":"8:0-18:0","Wednesday":"8:0-18:0","Thursday":"8:0-18:0","Friday":"8:0-18:0","Saturday":"8:0-18:0"}},{"business_id":"R2llqsqh31_0CdST2-ZuwA","name":"Pet Memorial Services","address":"126 Turner Ln","city":"West Chester","state":"PA","postal_code":"19380","latitude":39.972363,"longitude":-75.589824,"stars":3.5,"review_count":6,"is_open":1,"attributes":"","categories":"Pet Cremation Services, Pet Services, Pets","hours":{"Monday":"9:0-17:0","Tuesday":"9:0-17:0","Wednesday":"9:0-17:0","Thursday":"9:0-17:0","Friday":"9:0-17:0","Saturday":"10:0-12:0"}},{"business_id":"UvkcB1iSZBdcJ-DE1z7YcQ","name":"National Car Rental","address":"3201 W Airport Way, Ste 210","city":"Boise","state":"ID","postal_code":"83705","latitude":43.5686216,"longitude":-116.2218987,"stars":2.5,"review_count":21,"is_open":1,"attributes":"","categories":"Hotels & Travel, Car Rental","hours":{"Monday":"6:0-1:0","Tuesday":"6:0-1:0","Wednesday":"6:0-1:0","Thursday":"6:0-1:0","Friday":"6:0-1:0","Saturday":"6:0-1:0","Sunday":"6:0-1:0"}},{"business_id":"f_6cI4MdPem_48WgD1Ofcw","name":"Clara B's Kitchen Table","address":"","city":"Swansea","state":"IL","postal_code":"62220","latitude":38.4749780415,"longitude":-89.9908761308,"stars":5,"review_count":5,"is_open":1,"attributes":"","categories":"Restaurants, Southern, Food Trucks, Food, Breakfast & Brunch, Desserts","hours":null},{"business_id":"ce7Wffm49SAZognYApebUw","name":"Stir Lounge","address":"4450 Wabash St","city":"Metairie","state":"LA","postal_code":"70001","latitude":29.9976295072,"longitude":-90.1814946474,"stars":3.5,"review_count":9,"is_open":0,"attributes":"","categories":"Lounges, Cocktail Bars, Bars, Nightlife, Wine Bars","hours":{"Monday":"11:0-2:0","Tuesday":"11:0-2:0","Wednesday":"11:0-2:0","Thursday":"11:0-2:0","Friday":"11:0-4:0","Saturday":"11:0-4:0","Sunday":"11:0-2:0"}},{"business_id":"yDriUh65Wpx1HnTmXln9nw","name":"Subway","address":"LongSt Shopping Centre, 11323 104th Ave","city":"Edmonton","state":"AB","postal_code":"T5K 2S1","latitude":53.5458546,"longitude":-113.5165904,"stars":3,"review_count":9,"is_open":1,"attributes":"","categories":"Restaurants, Fast Food, Sandwiches","hours":{"Monday":"7:0-0:0","Tuesday":"7:0-0:0","Wednesday":"7:0-0:0","Thursday":"7:0-0:0","Friday":"7:0-2:0","Saturday":"9:0-2:0","Sunday":"9:0-23:0"}},{"business_id":"HTqoEYWlJkEXNEmHtKCPIA","name":"Stitch-It Alterations","address":"4101 Hillsboro Cir","city":"Nashville","state":"TN","postal_code":"37215","latitude":36.1055544,"longitude":-86.8192835,"stars":4.5,"review_count":25,"is_open":1,"attributes":"","categories":"Bespoke Clothing, Men's Clothing, Embroidery & Crochet, Sewing & Alterations, Local Services, Shopping, Arts & Crafts, Fashion","hours":{"Monday":"0:0-0:0","Tuesday":"9:0-17:0","Wednesday":"9:0-17:0","Thursday":"9:0-17:0","Friday":"9:0-17:0"}},{"business_id":"jUm6A52WSZnHA46b3HrJwg","name":"The Sweet Spot","address":"8410 109 St NW","city":"Edmonton","state":"AB","postal_code":"T6G 1E2","latitude":53.5204002,"longitude":-113.512508,"stars":4,"review_count":9,"is_open":1,"attributes":"","categories":"Shopping, Active Life, Sporting Goods, Tennis","hours":{"Monday":"0:0-0:0","Tuesday":"9:0-17:0","Wednesday":"9:0-17:0","Thursday":"9:0-17:0","Friday":"9:0-17:0"}},{"business_id":"9E8ou8QWn0RLJGutQZ3EEw","name":"David E Callahan Pool Plastering","address":"1198 Phoenixville Pike","city":"West Chester","state":"PA","postal_code":"19380","latitude":39.9972207,"longitude":-75.5941192,"stars":3.5,"review_count":8,"is_open":1,"attributes":"","categories":"Active Life, Pool Cleaners, Swimming Pools, Home Services, Pool & Hot Tub Service, Contractors","hours":{"Monday":"6:0-18:0","Tuesday":"6:0-18:0","Wednesday":"6:0-18:0","Thursday":"6:0-18:0","Friday":"6:0-18:0","Saturday":"6:0-14:0"}},{"business_id":"qkxVnEA80Qppl2IJFknf1Q","name":"Pier House 60 Beach Marina Hotel","address":"101 Coronado Dr","city":"Clearwater","state":"FL","postal_code":"33767","latitude":27.9754641,"longitude":-82.827904,"stars":3.5,"review_count":81,"is_open":1,"attributes":"","categories":"Event Planning & Services, Hotels, Hotels & Travel","hours":{"Monday":"0:0-0:0","Tuesday":"0:0-0:0","Wednesday":"0:0-0:0","Thursday":"0:0-0:0","Friday":"0:0-0:0","Saturday":"0:0-0:0","Sunday":"0:0-0:0"}},{"business_id":"qTXlIshnMO7qUMhg4QiE2A","name":"PSTA","address":"Park St Terminal","city":"Clearwater","state":"FL","postal_code":"33755","latitude":27.981827,"longitude":-82.7886395,"stars":2,"review_count":10,"is_open":1,"attributes":"","categories":"Public Services & Government","hours":null},{"business_id":"gK9CdFaCXmHoW8aLfXiSqg","name":"Tired Hands Fermentaria","address":"35 Cricket Ter","city":"Ardmore","state":"PA","postal_code":"19003","latitude":40.0066759391,"longitude":-75.2903721129,"stars":4,"review_count":459,"is_open":1,"attributes":"","categories":"Restaurants, Food, Beer, Wine & Spirits, Breweries, Mexican","hours":{"Wednesday":"15:0-21:0","Thursday":"15:0-21:0","Friday":"15:0-21:0","Saturday":"12:0-21:0","Sunday":"12:0-21:0"}},{"business_id":"0bzkJPZaxJI0aWh20ayBJQ","name":"Subway","address":"101 W Washington","city":"Millstadt","state":"IL","postal_code":"62260","latitude":38.4616615265,"longitude":-90.0929554558,"stars":1.5,"review_count":6,"is_open":1,"attributes":"","categories":"Restaurants, Sandwiches, Fast Food","hours":{"Monday":"9:0-20:0","Tuesday":"9:0-20:0","Wednesday":"9:0-20:0","Thursday":"9:0-20:0","Friday":"9:0-20:0","Saturday":"9:0-20:0","Sunday":"9:0-20:0"}},{"business_id":"qxDVtIq0EtvOtVKDwbYOiQ","name":"Tony Roma's","address":"10362 51 Avenue","city":"Edmonton","state":"AB","postal_code":"T6E 0A7","latitude":53.4882474,"longitude":-113.4956328,"stars":2.5,"review_count":26,"is_open":1,"attributes":"","categories":"American (Traditional), Seafood, Restaurants, Steakhouses, Barbeque","hours":null},{"business_id":"uhvlmT8DSb3jPpIy9zJ2lA","name":"10th Planet Jiu Jitsu Tucson","address":"4765 E Speedway Blvd","city":"Tucson","state":"AZ","postal_code":"85712","latitude":32.2366447,"longitude":-110.8906442,"stars":5,"review_count":5,"is_open":1,"attributes":"","categories":"Active Life, Fitness & Instruction, Martial Arts, Gyms, Kids Activities","hours":{"Monday":"17:30-21:30","Tuesday":"17:30-21:0","Wednesday":"17:30-21:30","Thursday":"17:30-21:0","Friday":"18:30-21:30","Sunday":"1:0-14:30"}},{"business_id":"ILi7_ep3fBfUZdJrXLGW2g","name":"Midas","address":"8141 Ogontz Ave","city":"Philadelphia","state":"PA","postal_code":"19150","latitude":40.0763604,"longitude":-75.158563411,"stars":2.5,"review_count":25,"is_open":1,"attributes":"","categories":"Tires, Oil Change Stations, Automotive, Auto Repair","hours":{"Monday":"7:30-18:0","Tuesday":"7:30-18:0","Wednesday":"7:30-18:0","Thursday":"7:30-18:0","Friday":"7:30-18:0","Saturday":"7:30-17:0"}},{"business_id":"vN6v8m4DO45Z4pp8yxxF_w","name":"Surrey's Caf√© & Juice Bar","address":"1418 Magazine St","city":"New Orleans","state":"LA","postal_code":"70130","latitude":29.935799,"longitude":-90.071906,"stars":4.5,"review_count":2084,"is_open":1,"attributes":"","categories":"Vegetarian, Restaurants, Breakfast & Brunch, Cafes, Juice Bars & Smoothies, Sandwiches, Food","hours":{"Monday":"8:0-15:0","Thursday":"8:0-15:0","Friday":"8:0-15:0","Saturday":"8:0-15:0","Sunday":"8:0-15:0"}},{"business_id":"KpxZYGTUQM2ygfDuUiC76g","name":"Macarons & Goodies","address":"50 St Thomas Street","city":"St. Albert","state":"AB","postal_code":"T8N 6Z8","latitude":53.632563,"longitude":-113.624613,"stars":4,"review_count":10,"is_open":1,"attributes":"","categories":"Macarons, Bakeries, Food, Specialty Food","hours":{"Monday":"9:0-18:0","Tuesday":"9:0-18:0","Wednesday":"9:0-18:0","Thursday":"9:0-18:0","Friday":"9:0-19:0","Saturday":"10:0-17:0"}},{"business_id":"wXvbqjS9g9461rnxSCqcag","name":"Nam Viet Vietnamese Cuisine","address":"8150 49th St N","city":"Pinellas Park","state":"FL","postal_code":"33781","latitude":27.84598,"longitude":-82.7005,"stars":4,"review_count":6,"is_open":1,"attributes":"","categories":"Vietnamese, Restaurants","hours":null},{"business_id":"E-L64r-ZKFrctVILn4w6tg","name":"Starbucks","address":"9235 US Hwy 19","city":"Port Richey","state":"FL","postal_code":"34668","latitude":28.292143,"longitude":-82.711172,"stars":3.5,"review_count":6,"is_open":1,"attributes":"","categories":"Coffee & Tea, Food","hours":{"Monday":"5:0-21:0","Tuesday":"5:0-21:0","Wednesday":"5:0-21:0","Thursday":"5:0-21:0","Friday":"5:0-21:0","Saturday":"6:0-21:0","Sunday":"6:0-21:0"}},{"business_id":"oQ5CPRt0R3AzFvcjNOqB1w","name":"Edley's Bar-B-Que - 12 South","address":"2706 12th Ave S","city":"Nashville","state":"TN","postal_code":"37204","latitude":36.1229732,"longitude":-86.7897823,"stars":4,"review_count":1114,"is_open":1,"attributes":"","categories":"Barbeque, Restaurants, Dive Bars, Cocktail Bars, Southern, Nightlife, Bars","hours":{"Monday":"11:0-21:0","Tuesday":"11:0-21:0","Wednesday":"11:0-21:0","Thursday":"11:0-21:0","Friday":"11:0-22:0","Saturday":"11:0-22:0","Sunday":"11:0-21:0"}},{"business_id":"URp-c4MOFJPLsfES_JBmBg","name":"Lovecchio's Pizza","address":"192 Landover Rd","city":"Bryn Mawr","state":"PA","postal_code":"19010","latitude":40.01622,"longitude":-75.321098,"stars":3.5,"review_count":52,"is_open":1,"attributes":"","categories":"Restaurants, Pizza","hours":{"Monday":"11:0-21:30","Tuesday":"11:0-21:30","Wednesday":"11:0-21:30","Thursday":"11:0-21:30","Friday":"11:0-21:30","Saturday":"11:0-21:30","Sunday":"16:0-21:30"}},{"business_id":"iD25g7vUG3asELjXtMGF9w","name":"Taqueria del Sol","address":"4001 Welsh Rd","city":"Willow Grove","state":"PA","postal_code":"19090","latitude":40.1561745,"longitude":-75.140904,"stars":3.5,"review_count":57,"is_open":0,"attributes":"","categories":"Food, Specialty Food, Mexican, Restaurants, Ethnic Food","hours":{"Monday":"11:30-21:0","Tuesday":"11:30-21:0","Wednesday":"11:30-21:0","Thursday":"11:30-21:0","Friday":"11:30-22:0","Saturday":"12:0-22:0","Sunday":"12:0-20:0"}},{"business_id":"uzjR6SIeNZUxSvya4SsKKQ","name":"Provence Bread","address":"1 Terminal Dr","city":"Nashville","state":"TN","postal_code":"37214","latitude":36.128014051,"longitude":-86.6693707106,"stars":1.5,"review_count":23,"is_open":0,"attributes":"","categories":"Restaurants, Food Stands","hours":null},{"business_id":"XGCwJnfDbjZv-6lOgkx6iw","name":"Hampton Inn - Indianapolis East","address":"2311 N Shadeland Ave","city":"Indianapolis","state":"IN","postal_code":"46219","latitude":39.8008372,"longitude":-86.0441524,"stars":2,"review_count":24,"is_open":0,"attributes":"","categories":"Hotels & Travel, Event Planning & Services, Hotels","hours":null},{"business_id":"KiE0h68HGOO7ZXAqkMBdiw","name":"Starbucks","address":"1015 De La Vina St","city":"Santa Barbara","state":"CA","postal_code":"93101","latitude":34.4194400142,"longitude":-119.704452981,"stars":2.5,"review_count":35,"is_open":0,"attributes":"","categories":"Food, Coffee & Tea","hours":null},{"business_id":"nXBbzLVtizXS0m_MNhL7HQ","name":"west elm","address":"690 W Dekalb Pike, Ste 2074","city":"King of Prussia","state":"PA","postal_code":"19406","latitude":40.088254,"longitude":-75.387715,"stars":1.5,"review_count":10,"is_open":1,"attributes":"","categories":"Home & Garden, Furniture Stores, Shopping, Home Decor","hours":{"Monday":"0:0-0:0","Tuesday":"10:0-21:0","Wednesday":"10:0-21:0","Thursday":"10:0-21:0","Friday":"10:0-21:0","Saturday":"10:0-21:0","Sunday":"11:0-18:0"}},{"business_id":"KVnW2wM_VdtckrVpiWXodg","name":"Love Lost Tattoo","address":"2327 Veterans Memorial Blvd, Ste B","city":"Kenner","state":"LA","postal_code":"70062","latitude":30.0054830784,"longitude":-90.235662649,"stars":5,"review_count":19,"is_open":1,"attributes":"","categories":"Tattoo, Beauty & Spas, Piercing","hours":{"Monday":"0:0-0:0","Tuesday":"12:30-19:0","Wednesday":"12:30-19:0","Thursday":"12:30-19:0","Friday":"12:30-19:0","Saturday":"12:30-19:0"}},{"business_id":"TKvLYL2T_RmCjDZmEtkfVA","name":"Albrecht","address":"650 Montgomery Ave","city":"Narberth","state":"PA","postal_code":"19072","latitude":40.00946,"longitude":-75.25526,"stars":3,"review_count":22,"is_open":0,"attributes":"","categories":"Flowers & Gifts, Florists, Shopping, Nurseries & Gardening, Home & Garden","hours":{"Monday":"9:0-18:0","Tuesday":"9:0-18:0","Wednesday":"9:0-18:0","Thursday":"9:0-18:0","Friday":"9:0-18:0","Saturday":"9:0-18:0","Sunday":"10:0-17:0"}},{"business_id":"50MNOCMK3OxqR_VL3Bsupg","name":"Sprint Store","address":"1700 Market St Ste 108","city":"Philadelphia","state":"PA","postal_code":"19103","latitude":39.9526775,"longitude":-75.1690841,"stars":2,"review_count":15,"is_open":0,"attributes":"","categories":"Mobile Phones, Shopping","hours":{"Monday":"11:0-18:0","Tuesday":"8:0-19:0","Wednesday":"8:0-19:0","Thursday":"8:0-19:0","Friday":"8:0-19:0","Saturday":"8:0-19:0","Sunday":"10:0-18:0"}},{"business_id":"PQva56jc2JZ5J2ZSqAWubQ","name":"Nat'l Authorized Service","address":"","city":"Philadelphia","state":"PA","postal_code":"19135","latitude":40.0203813,"longitude":-75.0552739,"stars":3,"review_count":6,"is_open":1,"attributes":"","categories":"Heating & Air Conditioning/HVAC, Local Services, Appliances & Repair, Home Services","hours":{"Monday":"0:0-0:0","Tuesday":"0:0-0:0","Wednesday":"0:0-0:0","Thursday":"0:0-0:0","Friday":"0:0-0:0","Saturday":"0:0-0:0","Sunday":"0:0-0:0"}},{"business_id":"Wjutpifh3rVa7bS1UK3dmA","name":"V Vegaz Style","address":"6174 Delmar Blvd","city":"Saint Louis","state":"MO","postal_code":"63112","latitude":38.6549147241,"longitude":-90.3053030264,"stars":4.5,"review_count":190,"is_open":1,"attributes":"","categories":"Nail Salons, Makeup Artists, Beauty & Spas, Barbers, Hair Salons, Blow Dry/Out Services","hours":{"Tuesday":"10:0-20:0","Wednesday":"10:0-20:0","Thursday":"10:0-20:0","Friday":"10:0-20:0","Saturday":"10:0-17:0"}},{"business_id":"16rx4GLfhnoqEdBMQWlZFw","name":"Catering BY Masso's","address":"210 Delsea Dr S","city":"Glassboro","state":"NJ","postal_code":"08028","latitude":39.7198816387,"longitude":-75.1129027742,"stars":3.5,"review_count":13,"is_open":1,"attributes":"","categories":"Event Planning & Services, Venues & Event Spaces, Caterers, Building Supplies, Home Services, Party Equipment Rentals","hours":{"Monday":"9:0-17:0","Tuesday":"9:0-17:0","Wednesday":"9:0-17:0","Thursday":"9:0-17:0","Friday":"9:0-17:0","Saturday":"9:0-17:0","Sunday":"10:0-18:0"}},{"business_id":"p_wfvSrIQDmB0S0DEegalQ","name":"The Working Class Tattoo","address":"1100 E 4th St","city":"Reno","state":"NV","postal_code":"89512","latitude":39.5325185,"longitude":-119.7988752,"stars":5,"review_count":5,"is_open":1,"attributes":"","categories":"Tattoo, Beauty & Spas","hours":{"Monday":"10:0-21:0","Tuesday":"10:0-21:0","Wednesday":"10:0-21:0","Thursday":"10:0-21:0","Friday":"10:0-21:0","Saturday":"10:0-21:0","Sunday":"10:0-21:0"}},{"business_id":"Zk-wk7yhR_byBmEBaLH2Zw","name":"Rocket Locksmith","address":"","city":"St. Louis","state":"MO","postal_code":"63146","latitude":38.6887567,"longitude":-90.4643906,"stars":2,"review_count":7,"is_open":1,"attributes":"","categories":"Keys & Locksmiths, Home Services","hours":{"Monday":"0:0-0:0","Tuesday":"0:0-0:0","Wednesday":"0:0-0:0","Thursday":"0:0-0:0","Friday":"0:0-0:0","Saturday":"0:0-0:0","Sunday":"0:0-0:0"}},{"business_id":"tOd6MX3hSuMyQxMK3ZKBTQ","name":"Lucky Taxi & Limousine","address":"535 Olive St","city":"Santa Barbara","state":"CA","postal_code":"93101","latitude":34.4226861,"longitude":-119.6911465,"stars":4.5,"review_count":7,"is_open":1,"attributes":"","categories":"Food, Transportation, Wineries, Taxis, Limos, Arts & Entertainment, Hotels & Travel","hours":{"Monday":"9:0-9:0","Tuesday":"9:0-9:0","Wednesday":"9:0-9:0","Thursday":"9:0-9:0","Friday":"9:0-9:0","Saturday":"9:0-9:0","Sunday":"9:0-9:0"}},{"business_id":"f3umcbFgGLVUx1R7iz9Qnw","name":"Riverside Village","address":"McGavock Pike And Riverside Dr","city":"Nashville","state":"TN","postal_code":"37216","latitude":36.2047386,"longitude":-86.7244708,"stars":4.5,"review_count":7,"is_open":1,"attributes":"","categories":"Local Flavor, Ice Cream & Frozen Yogurt, Coffee & Tea, Food, Shopping, Shopping Centers, Restaurants, Hair Salons, Beauty & Spas","hours":{"Monday":"7:0-23:0","Tuesday":"7:0-23:0","Wednesday":"7:0-23:0","Thursday":"7:0-23:0","Friday":"7:0-23:0","Saturday":"7:0-23:0","Sunday":"11:0-23:0"}},{"business_id":"ehF87wClLX9IWjfjAYCOfg","name":"Indy Decorative Concrete","address":"8366 Brookville Rd","city":"Indianapolis","state":"IN","postal_code":"46239","latitude":39.7488935,"longitude":-86.0187601,"stars":4,"review_count":8,"is_open":1,"attributes":"","categories":"Masonry/Concrete, Home Services, Contractors, Pressure Washers, Flooring","hours":{"Monday":"0:0-0:0","Tuesday":"9:0-18:0","Wednesday":"9:0-18:0","Thursday":"9:0-18:0","Friday":"9:0-18:0"}},{"business_id":"HY3Nh3xIR7Yp6Y0F3H_HRQ","name":"il Tavolo Trattoria","address":"3429 Deltona Blvd","city":"Spring Hill","state":"FL","postal_code":"34606","latitude":28.484842,"longitude":-82.575652,"stars":4,"review_count":5,"is_open":0,"attributes":"","categories":"Restaurants, Italian, Wine Bars, Nightlife, Bars, Modern European","hours":{"Tuesday":"16:0-21:0","Wednesday":"16:0-21:0","Thursday":"16:0-21:0","Friday":"16:0-21:0","Saturday":"16:0-21:0"}},{"business_id":"qNXAR7i6Tb3m0J0UBurj6g","name":"The Food Liaison","address":"1033 Casitas Pass Rd","city":"Carpinteria","state":"CA","postal_code":"93013","latitude":34.3959247576,"longitude":-119.5137759453,"stars":4.5,"review_count":84,"is_open":1,"attributes":"","categories":"Cooking Schools, Shopping, Cooking Classes, Restaurants, Caterers, Education, Cafes, Event Planning & Services, Specialty Schools, Arts & Crafts","hours":{"Monday":"0:0-0:0","Tuesday":"11:0-15:0","Wednesday":"11:0-15:0","Thursday":"11:0-15:0","Friday":"11:0-15:0"}},{"business_id":"fmDLQmU0lYjzU9qx6k8qug","name":"Safeway","address":"9050 E Valencia Rd","city":"Tucson","state":"AZ","postal_code":"85747","latitude":32.1179095,"longitude":-110.7989389,"stars":3,"review_count":18,"is_open":1,"attributes":"","categories":"Grocery, Food","hours":{"Monday":"0:0-0:0","Tuesday":"6:0-22:0","Wednesday":"6:0-22:0","Thursday":"6:0-22:0","Friday":"6:0-22:0","Saturday":"6:0-22:0","Sunday":"6:0-22:0"}},{"business_id":"cdqTpsr110wSNPMtLCPh7A","name":"SRS Real Estate","address":"1610 Spruce St","city":"Philadelphia","state":"PA","postal_code":"19103","latitude":39.94739,"longitude":-75.16854,"stars":2.5,"review_count":11,"is_open":1,"attributes":"","categories":"Home Services, Apartments, Real Estate, Real Estate Services","hours":{"Monday":"9:0-17:0","Tuesday":"9:0-17:0","Wednesday":"9:0-17:0","Thursday":"9:0-17:0","Friday":"9:0-17:0"}},{"business_id":"IHd8_cnLZe5oILE_oKy-5g","name":"Gary Ray's Texas BBQ","address":"5400 S Old Spanish Trl","city":"Tucson","state":"AZ","postal_code":"85747","latitude":32.1518225651,"longitude":-110.7350504771,"stars":2.5,"review_count":23,"is_open":0,"attributes":"","categories":"Restaurants, Food, Barbeque, Burgers","hours":{"Thursday":"16:0-20:0","Friday":"12:0-20:0","Saturday":"12:0-20:0","Sunday":"12:0-20:0"}},{"business_id":"-jX7VpT9VJ5KnyawzzBUsw","name":"Island Nails & Spa Salon","address":"290 Windward Passage","city":"Clearwater Beach","state":"FL","postal_code":"33767","latitude":27.977641324,"longitude":-82.8172916815,"stars":4,"review_count":10,"is_open":0,"attributes":"","categories":"Nail Salons, Beauty & Spas","hours":{"Monday":"10:0-19:0","Tuesday":"10:0-19:0","Wednesday":"10:0-19:0","Thursday":"10:0-19:0","Friday":"10:0-19:0","Saturday":"10:0-18:0","Sunday":"11:0-16:0"}},{"business_id":"4LxrCAMxPhoFGCAF-dvWqQ","name":"Golden Nails","address":"1261 Gulf Blvd, Ste 121","city":"Clearwater Beach","state":"FL","postal_code":"33767","latitude":27.951769,"longitude":-82.830031,"stars":3.5,"review_count":29,"is_open":1,"attributes":"","categories":"Nail Salons, Beauty & Spas","hours":null},{"business_id":"G3S5ZjwJjMq8iHutL23xWQ","name":"Sparkle Nails and Spa","address":"731 Route 113, Ste 2","city":"Souderton","state":"PA","postal_code":"18964","latitude":40.3151469,"longitude":-75.3074171,"stars":4.5,"review_count":7,"is_open":1,"attributes":"","categories":"Waxing, Nail Salons, Hair Removal, Day Spas, Beauty & Spas","hours":{"Monday":"0:0-0:0","Tuesday":"9:30-19:0","Wednesday":"9:30-19:0","Thursday":"9:30-19:0","Friday":"9:30-19:0","Saturday":"9:0-18:0","Sunday":"11:0-17:0"}},{"business_id":"GnCO-g9SyJxnOwFmGpjXng","name":"The Edge Fitness Clubs","address":"15501 Bustleton Ave","city":"Philadelphia","state":"PA","postal_code":"19116","latitude":40.132974,"longitude":-75.009625,"stars":2.5,"review_count":34,"is_open":1,"attributes":"","categories":"Gyms, Fitness & Instruction, Pilates, Active Life, Trainers","hours":{"Monday":"5:0-22:0","Tuesday":"5:0-22:0","Wednesday":"5:0-22:0","Thursday":"5:0-22:0","Friday":"5:0-21:0","Saturday":"7:0-18:0","Sunday":"7:0-17:0"}},{"business_id":"NT5S6JV5wPwKOd3s3Yh1zQ","name":"Burger Up","address":"2901 12th Ave S","city":"Nashville","state":"TN","postal_code":"37212","latitude":36.1215944,"longitude":-86.7904765,"stars":4,"review_count":857,"is_open":1,"attributes":"","categories":"Restaurants, American (New), Sandwiches, Burgers","hours":{"Monday":"11:30-21:0","Tuesday":"11:30-21:0","Wednesday":"11:30-21:0","Thursday":"11:30-21:0","Friday":"11:30-21:0","Saturday":"11:30-21:0","Sunday":"11:30-21:0"}},{"business_id":"1GNVElraiheL9plx7HcBDw","name":"Regis Salon","address":"6707 Tyrone Sq, Tyrone Square Mall","city":"Saint Petersburg","state":"FL","postal_code":"33710","latitude":27.793062,"longitude":-82.731553,"stars":4,"review_count":8,"is_open":1,"attributes":"","categories":"Hair Salons, Beauty & Spas","hours":{"Monday":"10:0-21:0","Tuesday":"10:0-21:0","Wednesday":"10:0-21:0","Thursday":"10:0-21:0","Friday":"10:0-21:0","Saturday":"10:0-21:0","Sunday":"11:0-19:0"}},{"business_id":"EbTJAD4R68mbRLapvF0skA","name":"The Live Juke Joint Dueling Piano Bar","address":"7376 Manchester Rd","city":"Maplewood","state":"MO","postal_code":"63143","latitude":38.6124086,"longitude":-90.3196308,"stars":3.5,"review_count":17,"is_open":0,"attributes":"","categories":"Restaurants, Piano Bars, American (Traditional), Nightlife, Bars","hours":{"Thursday":"17:0-1:30","Friday":"17:0-1:30","Saturday":"17:0-1:30","Sunday":"17:0-0:0"}},{"business_id":"s688oKDwUayG5rjHbPwK7w","name":"Two Tony's Restaurant","address":"8536 Pontchartrain Blvd","city":"New Orleans","state":"LA","postal_code":"70124","latitude":30.0209829768,"longitude":-90.1148233424,"stars":4,"review_count":110,"is_open":1,"attributes":"","categories":"Specialty Food, Caterers, Restaurants, Seafood, Italian, Seafood Markets, Food, Event Planning & Services","hours":{"Tuesday":"11:0-21:0","Wednesday":"11:0-21:0","Thursday":"11:0-21:0","Friday":"11:0-22:0","Saturday":"11:0-22:0"}},{"business_id":"jQbYTC8kJXgCnXHm-PiDnA","name":"Tri-State Data Recovery & Forensics","address":"50 W Third Ave, Ste 210","city":"Collegeville","state":"PA","postal_code":"19426","latitude":40.1855635794,"longitude":-75.4524068021,"stars":5,"review_count":11,"is_open":1,"attributes":"","categories":"IT Services & Computer Repair, Professional Services, Local Services, Data Recovery","hours":{"Monday":"9:0-17:30","Tuesday":"9:0-17:30","Wednesday":"9:0-17:30","Thursday":"9:0-17:30","Friday":"9:0-17:30"}},{"business_id":"sWAd8Kt87n86IeNC6BmTqA","name":"Pet Wants Nashville South","address":"1106 Division St","city":"Nashville","state":"TN","postal_code":"37203","latitude":36.1511989,"longitude":-86.7835132,"stars":5,"review_count":27,"is_open":1,"attributes":"","categories":"Pet Stores, Pets, Food Delivery Services, Food, Pet Services","hours":{"Monday":"0:0-0:0","Tuesday":"10:0-20:0","Wednesday":"10:0-20:0","Thursday":"10:0-20:0","Friday":"10:0-20:0","Saturday":"9:0-18:0","Sunday":"9:0-18:0"}},{"business_id":"2esINQvNBShE7c6RwGzE9w","name":"Pollo Tropical","address":"828 Providence Rd","city":"Brandon","state":"FL","postal_code":"33511","latitude":27.9250686,"longitude":-82.3170951,"stars":2,"review_count":70,"is_open":1,"attributes":"","categories":"Food, Chicken Wings, Specialty Food, Chicken Shop, Fast Food, Ethnic Food, Restaurants, Caribbean, Latin American","hours":{"Monday":"10:30-23:0","Tuesday":"10:30-23:0","Wednesday":"10:30-23:0","Thursday":"10:30-23:0","Friday":"10:30-23:0","Saturday":"10:30-23:0","Sunday":"10:30-23:0"}},{"business_id":"ADgeB1sfOGbzCR3LIi-4lg","name":"Cafe Reconcile","address":"1631 Oretha C Haley Blvd","city":"New Orleans","state":"LA","postal_code":"70113","latitude":29.9399302208,"longitude":-90.0803697109,"stars":4.5,"review_count":152,"is_open":1,"attributes":"","categories":"Cajun/Creole, Local Services, Southern, Soul Food, Food, Restaurants, Community Service/Non-Profit, Food Delivery Services","hours":{"Monday":"11:0-14:30","Tuesday":"11:0-14:30","Wednesday":"11:0-14:30","Thursday":"11:0-14:30","Friday":"11:0-14:30"}},{"business_id":"7JauIYWv_3t8gKVn2gW2SQ","name":"Underground Vape","address":"24 N Main St","city":"Doylestown","state":"PA","postal_code":"18901","latitude":40.3105321,"longitude":-75.1308742,"stars":5,"review_count":5,"is_open":0,"attributes":"","categories":"Shopping, Vape Shops","hours":{"Monday":"11:0-18:0","Tuesday":"11:0-18:0","Wednesday":"11:0-18:0","Thursday":"11:0-20:0","Friday":"11:0-20:0","Saturday":"11:0-20:0","Sunday":"12:0-18:0"}},{"business_id":"7Diay8IQXxvUfSa9TwR34g","name":"Erbil Kabob","address":"3734 Nolensville Pike","city":"Nashville","state":"TN","postal_code":"37211","latitude":36.0923548,"longitude":-86.735086,"stars":4,"review_count":39,"is_open":0,"attributes":"","categories":"Restaurants, Mediterranean, Middle Eastern","hours":{"Tuesday":"11:0-20:30","Wednesday":"11:0-20:30","Thursday":"11:0-20:30","Friday":"11:0-20:30","Saturday":"11:0-20:30","Sunday":"11:0-19:30"}},{"business_id":"HTAyYUMhs-DkV3HpLEM4pA","name":"New Bath","address":"4360 Washington Ave","city":"New Orleans","state":"LA","postal_code":"70125","latitude":29.954932,"longitude":-90.103071,"stars":2,"review_count":5,"is_open":1,"attributes":"","categories":"Contractors, Home Services","hours":null},{"business_id":"zt2JwrXrou8PyDELJOOA_w","name":"Alexander Customs","address":"1675 S Craycroft Rd","city":"Tucson","state":"AZ","postal_code":"85711","latitude":32.2019151,"longitude":-110.8745844,"stars":4,"review_count":5,"is_open":0,"attributes":"","categories":"Auto Detailing, Automotive, Auto Repair, Tires, Auto Glass Services","hours":{"Monday":"8:0-17:0","Tuesday":"8:0-17:0","Wednesday":"8:0-17:0","Thursday":"8:0-17:0","Friday":"8:0-17:0"}},{"business_id":"xBiGpVqnBrszgKa4ktbFlA","name":"ALDI","address":"209 S Royal Oaks Blvd","city":"Franklin","state":"TN","postal_code":"37064","latitude":35.9120197187,"longitude":-86.83184172,"stars":4,"review_count":9,"is_open":1,"attributes":"","categories":"Food, Beer, Wine & Spirits, Meat Shops, Grocery, Organic Stores, Discount Store, Specialty Food, Shopping, Fruits & Veggies","hours":{"Monday":"0:0-0:0","Tuesday":"8:30-20:0","Wednesday":"9:0-20:0","Thursday":"8:30-20:0","Friday":"9:0-20:0","Saturday":"9:0-20:0","Sunday":"9:0-20:0"}},{"business_id":"citzbW-2MVEZRNBqpVO-Jw","name":"Buffalo Wild Wings","address":"2062 Limestone Rd","city":"Wilmington","state":"DE","postal_code":"19808","latitude":39.7219843798,"longitude":-75.6572323456,"stars":3,"review_count":48,"is_open":0,"attributes":"","categories":"American (Traditional), Restaurants, Chicken Wings, Sports Bars, Bars, Burgers, Nightlife","hours":{"Monday":"11:0-0:0","Tuesday":"11:0-0:0","Wednesday":"11:0-0:0","Thursday":"11:0-0:0","Friday":"11:0-1:0","Saturday":"11:0-1:0","Sunday":"12:0-23:0"}},{"business_id":"P2KQ7CWYJojrFhaQSUasuQ","name":"Nomnivore","address":"","city":"Reno","state":"NV","postal_code":"89433","latitude":39.5275611877,"longitude":-119.8134994507,"stars":4.5,"review_count":17,"is_open":1,"attributes":"","categories":"Sandwiches, Caterers, Food, Food Trucks, Event Planning & Services, Restaurants","hours":null},{"business_id":"oRZOki5k1vGsR6ORGr7nkw","name":"Gamestop","address":"160 N Gulph Rd","city":"King of Prussia","state":"PA","postal_code":"19406","latitude":40.088379,"longitude":-75.393034,"stars":3,"review_count":5,"is_open":0,"attributes":"","categories":"Books, Mags, Music & Video, Shopping, Video Game Stores","hours":{"Monday":"10:0-21:0","Tuesday":"10:0-21:0","Wednesday":"10:0-21:0","Thursday":"10:0-21:0","Friday":"10:0-21:0","Saturday":"10:0-21:0","Sunday":"11:0-18:0"}},{"business_id":"cvwj_KxKOmdosBFBY1Ka9A","name":"Pit Boss Bar-B-Q","address":"2270 Commercial Way","city":"Spring Hill","state":"FL","postal_code":"34606","latitude":28.4653151,"longitude":-82.6196939,"stars":3,"review_count":10,"is_open":0,"attributes":"","categories":"Restaurants, Barbeque","hours":{"Monday":"11:0-20:30","Tuesday":"11:0-20:30","Wednesday":"11:0-20:30","Thursday":"11:0-20:30","Friday":"10:30-21:30","Saturday":"10:30-21:30","Sunday":"12:0-20:30"}},{"business_id":"rz_an69uzlVtRzkRSMqrsw","name":"China House","address":"7141 Ogontz Ave","city":"Philadelphia","state":"PA","postal_code":"19138","latitude":40.0631649,"longitude":-75.1519159,"stars":2.5,"review_count":14,"is_open":1,"attributes":"","categories":"Chinese, Restaurants","hours":null},{"business_id":"X0yZMHwB1yUyzISAqRyYtQ","name":"Tampa Airport Marriott","address":"Tampa International Airport, 4200 George J. Bean Pkwy","city":"Tampa","state":"FL","postal_code":"33607","latitude":27.9818729708,"longitude":-82.5346118733,"stars":3.5,"review_count":120,"is_open":1,"attributes":"","categories":"Event Planning & Services, Hotels, Hotels & Travel, Venues & Event Spaces","hours":{"Monday":"0:0-0:0","Tuesday":"0:0-0:0","Wednesday":"0:0-0:0","Thursday":"0:0-0:0","Friday":"0:0-0:0","Saturday":"0:0-0:0","Sunday":"0:0-0:0"}},{"business_id":"p1A6pcb-Aif8dKjPGlMGfA","name":"Hampton Inn New Orleans-St. Charles Ave./Garden District","address":"3626 St Charles Ave","city":"New Orleans","state":"LA","postal_code":"70115","latitude":29.9269297523,"longitude":-90.0939953327,"stars":4,"review_count":68,"is_open":1,"attributes":"","categories":"Hotels & Travel, Event Planning & Services, Hotels","hours":{"Monday":"0:0-0:0","Tuesday":"0:0-0:0","Wednesday":"0:0-0:0","Thursday":"0:0-0:0","Friday":"0:0-0:0","Saturday":"0:0-0:0","Sunday":"0:0-0:0"}},{"business_id":"06ZYW6QE-5dHmZGyNrTiAQ","name":"David's In Clayton","address":"8123 Maryland Ave","city":"Saint Louis","state":"MO","postal_code":"63105","latitude":38.652397,"longitude":-90.3422749,"stars":4,"review_count":13,"is_open":1,"attributes":"","categories":"Beauty & Spas, Hair Salons","hours":{"Tuesday":"8:0-20:0","Wednesday":"8:0-20:0","Thursday":"8:0-20:0","Friday":"8:0-20:0","Saturday":"8:0-20:0"}},{"business_id":"SlP_g9tavcw74dUngMblvA","name":"LG&P Security Services","address":"3690 Grant Dr, Ste J","city":"Reno","state":"NV","postal_code":"89509","latitude":39.488824,"longitude":-119.8018654,"stars":3.5,"review_count":19,"is_open":1,"attributes":"","categories":"Professional Services, Fire Protection Services, Home Services, Security Services, Private Investigation","hours":{"Monday":"0:0-0:0","Tuesday":"0:0-0:0","Wednesday":"0:0-0:0","Thursday":"0:0-0:0","Friday":"0:0-0:0","Saturday":"0:0-0:0","Sunday":"0:0-0:0"}},{"business_id":"AyTdOt9-9QB9kKu0GGZlRg","name":"Brookville Road Animal Hospital","address":"8049 Brookville Rd","city":"Indianapolis","state":"IN","postal_code":"46239","latitude":39.7491693,"longitude":-86.0249526,"stars":4.5,"review_count":13,"is_open":1,"attributes":"","categories":"Pets, Veterinarians","hours":null},{"business_id":"bu79OfbG6B3dAAfUhBmQIA","name":"Drakes Creek Marine Works","address":"441 Sanders Ferry Rd","city":"Hendersonville","state":"TN","postal_code":"37075","latitude":36.2604337,"longitude":-86.6092924,"stars":3,"review_count":5,"is_open":1,"attributes":"","categories":"Boat Dealers, Automotive, Active Life, Boating","hours":{"Monday":"8:0-19:0","Tuesday":"8:0-19:0","Wednesday":"8:0-19:0","Thursday":"8:0-19:0","Friday":"8:0-19:0","Saturday":"8:0-19:0","Sunday":"8:0-19:0"}},{"business_id":"OG8er33dEnzM1Bc9nErUmA","name":"1 Stop Pizza","address":"3701 Germantown Ave","city":"Philadelphia","state":"PA","postal_code":"19140","latitude":40.0093835,"longitude":-75.1506617,"stars":3.5,"review_count":8,"is_open":1,"attributes":"","categories":"Food, Grocery, Burgers, Pizza, Restaurants, Italian, Delis","hours":{"Monday":"7:0-23:0","Tuesday":"7:0-23:0","Wednesday":"7:0-23:0","Thursday":"7:0-23:0","Friday":"7:0-23:0","Saturday":"7:0-23:0","Sunday":"7:0-23:0"}},{"business_id":"_dYrQtmOaBDIqMJQNi3fAg","name":"J Luna's Mobile Car Wash","address":"522 Myrtle Ave, Apt Ste 3","city":"Santa Barbara","state":"CA","postal_code":"93101","latitude":34.418898,"longitude":-119.7127066,"stars":5,"review_count":5,"is_open":1,"attributes":"","categories":"Automotive, Car Wash","hours":null},{"business_id":"5vGeF12-lyJWAtuA03OGZA","name":"Social Modern Pub","address":"10807 106 Avenue","city":"Edmonton","state":"AB","postal_code":"T5H 4A7","latitude":53.5496933,"longitude":-113.5070706,"stars":4,"review_count":10,"is_open":0,"attributes":"","categories":"Gastropubs, Pizza, Bars, Chicken Wings, Pubs, Restaurants, Nightlife, Lounges","hours":{"Monday":"16:0-0:0","Tuesday":"16:0-0:0","Wednesday":"16:0-0:0","Thursday":"16:0-0:0","Friday":"16:0-2:0","Saturday":"16:0-2:0","Sunday":"16:0-0:0"}},{"business_id":"3dd9a6QMCZc71UNMrBfSNA","name":"Philadelphia School of Circus Arts","address":"6452 Greene St","city":"Philadelphia","state":"PA","postal_code":"19119","latitude":40.0415666,"longitude":-75.1892902,"stars":4.5,"review_count":28,"is_open":1,"attributes":"","categories":"Active Life, Specialty Schools, Pole Dancing Classes, Aerial Fitness, Fitness & Instruction, Performing Arts, Arts & Entertainment, Education","hours":{"Monday":"16:0-21:0","Tuesday":"16:0-21:0","Wednesday":"9:0-21:0","Thursday":"16:0-21:0","Friday":"16:0-0:0","Saturday":"9:0-17:0","Sunday":"9:0-17:0"}},{"business_id":"8WGshG0VJ-rMEuyFNr5WbA","name":"Clay Terrace Dog Park","address":"14390 Clay Terrace Blvd","city":"Carmel","state":"IN","postal_code":"46032","latitude":39.99728,"longitude":-86.127756,"stars":4,"review_count":16,"is_open":1,"attributes":"","categories":"Parks, Active Life, Dog Parks","hours":null},{"business_id":"rsDFJ05TiW7yBMdVuQ2tQQ","name":"Ted Drewes Custard","address":"4224 S Grand Blvd","city":"Saint Louis","state":"MO","postal_code":"63111","latitude":38.58012,"longitude":-90.24425,"stars":4.5,"review_count":276,"is_open":1,"attributes":"","categories":"Local Flavor, Ice Cream & Frozen Yogurt, Food","hours":{"Monday":"11:0-22:30","Tuesday":"11:0-22:30","Wednesday":"11:0-22:30","Thursday":"11:0-22:30","Friday":"11:0-22:30","Saturday":"11:0-22:30","Sunday":"11:0-22:30"}},{"business_id":"uTEUhzXyLaFSYYv1AHOv_Q","name":"Little Caesar's Pizza","address":"1170 Terry Pkwy","city":"Terrytown","state":"LA","postal_code":"70056","latitude":29.8907817,"longitude":-90.0313771,"stars":3,"review_count":5,"is_open":1,"attributes":"","categories":"Restaurants, Pizza, Italian","hours":{"Monday":"10:30-22:0","Tuesday":"10:30-22:0","Wednesday":"10:30-22:0","Thursday":"10:30-22:0","Friday":"10:30-23:0","Saturday":"10:30-23:0","Sunday":"10:30-22:0"}},{"business_id":"AB2jIdo6JMws22tnhYfFiQ","name":"Osburn Park","address":"2904 Old Horton Hwy","city":"Nolensville","state":"TN","postal_code":"37135","latitude":35.88447,"longitude":-86.6585602,"stars":3,"review_count":5,"is_open":1,"attributes":"","categories":"Active Life, Parks, Soccer","hours":null},{"business_id":"IJxdSdteun-ZFDMMBp__Fw","name":"Bay City Cabinets","address":"4335 E Hillsborough Ave","city":"Tampa","state":"FL","postal_code":"33610","latitude":27.9956689,"longitude":-82.4086536,"stars":3,"review_count":6,"is_open":1,"attributes":"","categories":"Building Supplies, Home Services, Cabinetry, Kitchen & Bath, Shopping, Home & Garden, Countertop Installation","hours":{"Monday":"8:0-18:0","Tuesday":"8:0-18:0","Wednesday":"8:0-18:0","Thursday":"8:0-18:0","Friday":"8:0-18:0","Saturday":"8:0-18:0"}},{"business_id":"4KAuy-zNBxD9QvnkldwEww","name":"The Marquee","address":"1212 State St","city":"Santa Barbara","state":"CA","postal_code":"93101","latitude":34.4236656,"longitude":-119.7048233,"stars":4,"review_count":45,"is_open":0,"attributes":"","categories":"Restaurants, Bars, American (New), Nightlife, Wine Bars","hours":{"Monday":"16:0-2:0","Tuesday":"16:0-2:0","Wednesday":"16:0-2:0","Thursday":"16:0-2:0","Friday":"16:0-2:0","Saturday":"16:0-2:0","Sunday":"16:0-2:0"}},{"business_id":"-dlxDNFu_gRiUlfTInvrkA","name":"Rancheros Market","address":"16142 N Oracle Rd","city":"Tucson","state":"AZ","postal_code":"85739","latitude":32.499078,"longitude":-110.925343,"stars":4.5,"review_count":36,"is_open":1,"attributes":"","categories":"Specialty Food, Herbs & Spices, Food, Restaurants, Meat Shops, Mexican","hours":{"Monday":"7:0-20:0","Tuesday":"7:0-20:0","Wednesday":"7:0-20:0","Thursday":"7:0-20:0","Friday":"7:0-20:0","Saturday":"7:0-20:0","Sunday":"7:0-20:0"}},{"business_id":"Y87bVaGb0WU9PIHN1S-AWA","name":"Taco Bell","address":"9725 Pyramid Way","city":"Sparks","state":"NV","postal_code":"89441","latitude":39.63846,"longitude":-119.7116,"stars":1.5,"review_count":82,"is_open":1,"attributes":"","categories":"Restaurants, Breakfast & Brunch, Fast Food, Tacos, Mexican, Tex-Mex","hours":{"Monday":"7:0-22:0","Tuesday":"7:0-22:0","Wednesday":"7:0-22:0","Thursday":"7:0-22:0","Friday":"7:0-0:0","Saturday":"7:0-0:0","Sunday":"7:0-22:0"}},{"business_id":"wvriWKSdzamGIK0oxZYzmA","name":"Viet Hua Market","address":"8031 Madison Ave","city":"Indianapolis","state":"IN","postal_code":"46227","latitude":39.649785,"longitude":-86.118731,"stars":4.5,"review_count":14,"is_open":1,"attributes":"","categories":"International Grocery, Food, Restaurants","hours":{"Monday":"9:0-21:0","Tuesday":"9:0-21:0","Wednesday":"9:0-21:0","Thursday":"9:0-21:0","Friday":"9:0-21:0","Saturday":"9:0-21:0","Sunday":"9:0-21:0"}},{"business_id":"PXDLSN8Fg-YQmwGprVrRyA","name":"Hernando Beach Tropical Grille","address":"4139 Shoal Line Blvd","city":"Hernando Beach","state":"FL","postal_code":"34607","latitude":28.489677,"longitude":-82.651001,"stars":4,"review_count":106,"is_open":1,"attributes":"","categories":"Restaurants, Bars, Seafood, Nightlife, Local Flavor, American (Traditional), Tiki Bars","hours":{"Monday":"11:30-20:0","Tuesday":"11:30-20:0","Wednesday":"11:30-20:0","Thursday":"11:30-20:0","Friday":"11:30-20:0","Saturday":"11:30-20:0","Sunday":"11:30-20:0"}},{"business_id":"tnjLCyqIUmq8hJLE8IvtQg","name":"Bank Street Youth Hostel","address":"32 S Bank St","city":"Philadelphia","state":"PA","postal_code":"19106","latitude":39.9488797,"longitude":-75.1452806,"stars":3,"review_count":5,"is_open":0,"attributes":"","categories":"Hotels & Travel, Hostels","hours":null},{"business_id":"yYuEN8UdASqAt7pqMWlcjg","name":"Vantage Pointe at Marrowbone Heights","address":"1164 Vantage Pointe Rd","city":"Ashland City","state":"TN","postal_code":"37015","latitude":36.245023,"longitude":-87.0234466,"stars":2,"review_count":6,"is_open":1,"attributes":"","categories":"Real Estate, Home Services, Apartments, Property Management","hours":{"Monday":"9:0-17:30","Tuesday":"9:0-17:30","Wednesday":"9:0-17:30","Thursday":"9:0-17:30","Friday":"9:0-17:30","Saturday":"10:0-16:0"}},{"business_id":"9RM9HNN0SItS7-GdARODhw","name":"Manhattan Bagel","address":"4 S Macdade Blvd","city":"Glenolden","state":"PA","postal_code":"19036","latitude":39.9051213199,"longitude":-75.2927801013,"stars":3.5,"review_count":42,"is_open":1,"attributes":"","categories":"Restaurants, Breakfast & Brunch, Bagels, Food, Sandwiches","hours":{"Monday":"6:0-14:0","Tuesday":"6:0-14:0","Wednesday":"6:0-14:0","Thursday":"6:0-14:0","Friday":"6:0-14:0","Saturday":"6:0-14:0","Sunday":"7:0-14:0"}},{"business_id":"nPlGFRft9UxIGBgkuFUzkg","name":"Sun Country Cleaners","address":"1590 N McMullen Booth Rd","city":"Clearwater","state":"FL","postal_code":"33759","latitude":27.9822647,"longitude":-82.7114878,"stars":2,"review_count":5,"is_open":1,"attributes":"","categories":"Dry Cleaning & Laundry, Local Services, Laundry Services","hours":null},{"business_id":"W2Fln6pP0e_9OjiwnXsbEw","name":"Royal Mask","address":"710 Royal St","city":"New Orleans","state":"LA","postal_code":"70116","latitude":29.9581579665,"longitude":-90.0647088314,"stars":5,"review_count":12,"is_open":1,"attributes":"","categories":"Fashion, Accessories, Arts & Entertainment, Souvenir Shops, Shopping, Local Flavor, Art Galleries","hours":{"Monday":"10:0-20:0","Tuesday":"10:0-20:0","Wednesday":"10:0-20:0","Thursday":"10:0-20:0","Friday":"10:0-20:0","Saturday":"10:0-20:0","Sunday":"10:0-20:0"}},{"business_id":"C_70-CrX6tKamfU7iPkyFQ","name":"Salon Du Soleil Medi-Spa","address":"16701 Gulf Blvd","city":"North Redington Beach","state":"FL","postal_code":"33708","latitude":27.816571,"longitude":-82.821152,"stars":1.5,"review_count":14,"is_open":1,"attributes":"","categories":"Medical Spas, Massage, Beauty & Spas, Health & Medical, Nail Salons, Hair Salons","hours":{"Monday":"9:0-18:0","Tuesday":"9:0-18:0","Wednesday":"9:0-18:0","Thursday":"9:0-18:0","Friday":"9:0-18:0","Saturday":"9:0-18:0","Sunday":"9:0-18:0"}},{"business_id":"cMh5L51kFGignGI-P4f47Q","name":"Uno Pizzeria & Grill","address":"4740 E. Southport Road","city":"Southport","state":"IN","postal_code":"46237","latitude":39.6665752,"longitude":-86.0873231,"stars":3.5,"review_count":75,"is_open":1,"attributes":"","categories":"Gluten-Free, American (Traditional), Restaurants, Pizza","hours":{"Monday":"0:0-0:0","Tuesday":"11:0-21:0","Wednesday":"11:0-21:0","Thursday":"11:0-21:0","Friday":"11:0-22:0","Saturday":"11:0-22:0","Sunday":"11:0-21:0"}},{"business_id":"goTAL_3Ns-bsMgfGmKDq0A","name":"Spitale's Deli & Catering","address":"3309 Division St","city":"Metairie","state":"LA","postal_code":"70002","latitude":30.004792813,"longitude":-90.164385708,"stars":4.5,"review_count":53,"is_open":1,"attributes":"","categories":"American (New), Restaurants, Local Flavor, Delis","hours":{"Monday":"9:0-16:0","Tuesday":"10:30-20:0","Wednesday":"10:30-20:0","Thursday":"10:30-20:0","Friday":"10:30-20:0","Saturday":"10:30-20:0"}},{"business_id":"itnGLkz-ZoTSFa3Bdd4psQ","name":"Silver Bear Swim School Sparks","address":"5490 S Los Altos Pkwy","city":"Sparks","state":"NV","postal_code":"89436","latitude":39.5664152,"longitude":-119.6983043,"stars":4,"review_count":26,"is_open":1,"attributes":"","categories":"Active Life, Fitness & Instruction, Education, Swimming Pools, Specialty Schools, Swimming Lessons/Schools","hours":null},{"business_id":"zsIz7OwTSz3KMAufihoHwQ","name":"Sears Window Replacement","address":"","city":"Bridgeton","state":"MO","postal_code":"63044","latitude":38.767401,"longitude":-90.4408037,"stars":2,"review_count":5,"is_open":1,"attributes":"","categories":"Contractors, Building Supplies, Cabinetry, Heating & Air Conditioning/HVAC, Home Services, Windows Installation, Roofing, Siding, Countertop Installation","hours":{"Monday":"9:0-22:0","Tuesday":"9:0-22:0","Wednesday":"9:0-22:0","Thursday":"9:0-22:0","Friday":"9:0-22:0","Saturday":"9:0-22:0","Sunday":"9:0-22:0"}},{"business_id":"StJngGaxDOJDjNmsCcKuAQ","name":"Nick's Famous Pizza","address":"5810 Greene St","city":"Philadelphia","state":"PA","postal_code":"19144","latitude":40.0351703,"longitude":-75.1787516,"stars":3.5,"review_count":12,"is_open":1,"attributes":"","categories":"Pizza, Restaurants","hours":{"Monday":"11:0-22:0","Tuesday":"11:0-22:0","Wednesday":"11:0-22:0","Thursday":"11:0-22:0","Friday":"11:0-22:0","Saturday":"11:0-22:0"}},{"business_id":"B-Wxk2MyuCWLC5pinBERPg","name":"Hand & Stone Massage and Facial Spa","address":"2844 S Eagle Rd","city":"Newtown","state":"PA","postal_code":"18940","latitude":40.2338823,"longitude":-74.943117,"stars":2,"review_count":28,"is_open":1,"attributes":"","categories":"Skin Care, Massage, Day Spas, Beauty & Spas","hours":{"Monday":"9:0-21:0","Tuesday":"9:0-21:0","Wednesday":"9:0-21:0","Thursday":"9:0-21:0","Friday":"9:0-21:0","Saturday":"9:0-19:0","Sunday":"10:0-18:0"}},{"business_id":"mc1uhOwSoZ-lMMcRiRd4iw","name":"The House","address":"329 Indianapolis Rd","city":"Mooresville","state":"IN","postal_code":"46158","latitude":39.61728,"longitude":-86.36498,"stars":4.5,"review_count":13,"is_open":1,"attributes":"","categories":"Restaurants, Religious Items, Shopping, American (Traditional), Cafes, Soup, Sandwiches","hours":{"Monday":"0:0-0:0","Tuesday":"6:30-15:0","Wednesday":"6:30-15:0","Thursday":"6:30-15:0","Friday":"6:30-15:0","Saturday":"9:0-14:0"}},{"business_id":"WGRaVjMOKgaX03j5vCo00Q","name":"The Monkey's Treehouse","address":"91 Seaboard Ln, Ste 103","city":"Brentwood","state":"TN","postal_code":"37027","latitude":35.9658105,"longitude":-86.8159481,"stars":3.5,"review_count":33,"is_open":1,"attributes":"","categories":"Recreation Centers, Arts & Entertainment, Party Supplies, Venues & Event Spaces, Event Planning & Services, Active Life, Playgrounds","hours":{"Monday":"9:0-14:0","Tuesday":"9:0-14:0","Wednesday":"9:0-14:0","Thursday":"9:0-14:0","Friday":"9:0-14:0","Saturday":"9:0-13:0"}},{"business_id":"JGzrVEBaaVUd2VCsWlf47g","name":"Ulta Beauty","address":"146 Commerce Blvd","city":"Fairless Hills","state":"PA","postal_code":"19030","latitude":40.1851779,"longitude":-74.8651605472,"stars":3,"review_count":33,"is_open":1,"attributes":"","categories":"Cosmetics & Beauty Supply, Beauty & Spas, Hair Salons, Skin Care, Shopping","hours":{"Monday":"10:0-20:0","Tuesday":"10:0-20:0","Wednesday":"10:0-20:0","Thursday":"10:0-21:0","Friday":"10:0-18:0","Saturday":"10:0-18:0","Sunday":"10:0-20:0"}},{"business_id":"teFjQxUqT8c-yxQdoILDVQ","name":"Nada","address":"11 W Maryland St","city":"Indianapolis","state":"IN","postal_code":"46204","latitude":39.7654786,"longitude":-86.1587013,"stars":4.5,"review_count":1619,"is_open":1,"attributes":"","categories":"New Mexican Cuisine, Breakfast & Brunch, Desserts, Nightlife, Bars, Cocktail Bars, Mexican, Latin American, Restaurants, Food, Tacos","hours":{"Monday":"16:0-22:0","Tuesday":"17:0-22:0","Wednesday":"17:0-22:0","Thursday":"17:0-22:0","Friday":"17:0-22:0","Saturday":"17:0-22:0","Sunday":"17:0-22:0"}},{"business_id":"nD6EXlKAX6fsUOZbabl3Cg","name":"Pavers By Porter","address":"645 Tranquil Dr","city":"Sparks","state":"NV","postal_code":"89441","latitude":39.65963,"longitude":-119.687633,"stars":4,"review_count":13,"is_open":1,"attributes":"","categories":"Contractors, Home Services, Local Services","hours":{"Monday":"8:0-16:30","Tuesday":"8:0-16:30","Wednesday":"8:0-16:30","Thursday":"8:0-16:30","Friday":"8:0-16:30"}},{"business_id":"Ye3-MAFCUFrJcnnARErOuQ","name":"Pepe's Cuban Cafe","address":"1900 Oak Grove Blvd","city":"Lutz","state":"FL","postal_code":"33559","latitude":28.1845094,"longitude":-82.4130284,"stars":3.5,"review_count":140,"is_open":0,"attributes":"","categories":"Restaurants, Cuban","hours":{"Monday":"0:0-0:0","Tuesday":"6:30-21:0","Wednesday":"6:30-21:0","Thursday":"6:30-21:0","Friday":"6:30-21:0","Saturday":"6:30-21:0","Sunday":"6:30-21:0"}},{"business_id":"ZpYkOboref8V_LfOO2HUhg","name":"Pier 1","address":"2902 W 86th St, Ste 100","city":"Indianapolis","state":"IN","postal_code":"46268","latitude":39.9125376297,"longitude":-86.2116204947,"stars":4,"review_count":10,"is_open":0,"attributes":"","categories":"Shopping Centers, Candle Stores, Furniture Stores, Shopping, Home & Garden, Home Decor","hours":{"Monday":"12:0-19:0","Tuesday":"12:0-19:0","Wednesday":"12:0-19:0","Thursday":"12:0-19:0","Friday":"12:0-19:0","Saturday":"12:0-19:0","Sunday":"12:0-19:0"}},{"business_id":"eGmbGdkhPjw2gniEIq-E6Q","name":"Imperial Palace Chinese Restaurant","address":"5921 N Broad St","city":"Philadelphia","state":"PA","postal_code":"19141","latitude":40.0435209,"longitude":-75.1433762,"stars":4,"review_count":12,"is_open":1,"attributes":"","categories":"Chinese, Restaurants, American (Traditional), Fast Food","hours":{"Monday":"15:0-2:0","Tuesday":"15:0-2:0","Wednesday":"15:0-2:0","Thursday":"15:0-2:0","Friday":"15:0-3:0","Saturday":"15:0-3:0"}},{"business_id":"RM8PI5JpQJZQsmw0g96Iwg","name":"The Lash Studio","address":"38117 5th Ave","city":"Zephyrhills","state":"FL","postal_code":"33542","latitude":28.231992,"longitude":-82.1861708,"stars":5,"review_count":7,"is_open":1,"attributes":"","categories":"Eyelash Service, Beauty & Spas, Permanent Makeup","hours":{"Monday":"10:0-13:0","Tuesday":"10:0-19:0","Wednesday":"10:0-17:30","Thursday":"10:0-17:30","Friday":"10:0-19:0","Saturday":"7:0-13:0"}},{"business_id":"6QetN1Jg0EyR9AU2ecSNBw","name":"Tiki's Paintball Park","address":"210 Pruett Rd","city":"Seffner","state":"FL","postal_code":"33584","latitude":28.020663,"longitude":-82.278924,"stars":3.5,"review_count":6,"is_open":1,"attributes":"","categories":"Active Life, Paintball","hours":{"Friday":"15:0-19:0","Saturday":"9:0-17:0","Sunday":"9:0-17:0"}},{"business_id":"sroYm8E9BbnnLO3nhKjomg","name":"French Quarter Festival","address":"French Quarter","city":"New Orleans","state":"LA","postal_code":"70130","latitude":29.9578368769,"longitude":-90.0641038164,"stars":4.5,"review_count":91,"is_open":1,"attributes":"","categories":"Festivals, Food Stands, Local Flavor, Music Venues, Arts & Entertainment, Nightlife, Restaurants, Jazz & Blues","hours":{"Monday":"9:0-8:30","Tuesday":"9:0-8:30","Wednesday":"9:0-8:30","Thursday":"9:0-8:30","Friday":"9:0-8:30","Saturday":"9:0-8:30","Sunday":"9:0-8:30"}},{"business_id":"Y8c4pgLr8qWkGsxoemKbAQ","name":"The Gaslight Costume Shoppe","address":"7004 E Broadway","city":"Tucson","state":"AZ","postal_code":"85710","latitude":32.2206414149,"longitude":-110.8432233037,"stars":4,"review_count":13,"is_open":1,"attributes":"","categories":"Arts & Entertainment, Costumes, Shopping, Arts & Crafts, Concept Shops","hours":{"Monday":"10:0-17:30","Tuesday":"10:0-17:30","Wednesday":"10:0-17:30","Thursday":"10:0-17:30","Friday":"10:0-17:30","Saturday":"10:0-17:30"}},{"business_id":"kqQvmetbFgclSBQlMOT4PQ","name":"Cycle Outfitters","address":"7631 S Meridian St","city":"Indianapolis","state":"IN","postal_code":"46217","latitude":39.6547990242,"longitude":-86.1578274315,"stars":4,"review_count":10,"is_open":1,"attributes":"","categories":"Motorcycle Repair, Automotive, Tires, Shopping, Motorcycle Gear, Motorcycle Dealers","hours":{"Monday":"0:0-0:0","Tuesday":"10:0-18:0","Wednesday":"10:0-18:0","Thursday":"10:0-18:0","Friday":"10:0-18:0","Saturday":"10:0-17:0"}},{"business_id":"E0IZ7pkBnlb3TNVdUJlmCg","name":"Premium Transportation Services","address":"10801 Pear Tree Ln, Ste 130","city":"St. Ann","state":"MO","postal_code":"63074","latitude":38.7393349,"longitude":-90.3746449,"stars":5,"review_count":5,"is_open":1,"attributes":"","categories":"Movers, Airport Shuttles, Transportation, Limos, Airports, Taxis, Hotels & Travel, Home Services","hours":{"Monday":"6:0-23:0","Tuesday":"6:0-23:0","Wednesday":"6:0-23:0","Thursday":"6:0-23:0","Friday":"6:0-23:0","Saturday":"6:0-23:0","Sunday":"6:0-23:0"}},{"business_id":"onLwomlGswMhhmOEAeAVEg","name":"The Spot","address":"389 Linden Ave","city":"Carpinteria","state":"CA","postal_code":"93013","latitude":34.3955078,"longitude":-119.5229039,"stars":3.5,"review_count":381,"is_open":1,"attributes":"","categories":"Mexican, American (Traditional), Burgers, Restaurants","hours":{"Monday":"10:0-16:0","Tuesday":"10:0-19:0","Wednesday":"10:0-19:0","Thursday":"10:0-19:0","Friday":"10:0-20:0","Saturday":"10:0-20:0","Sunday":"10:0-17:0"}},{"business_id":"y4Aw_TAox_6RPgE_x_TK1g","name":"Pyramid Federal Credit Union","address":"4491 N Oracle Rd","city":"Tucson","state":"AZ","postal_code":"85705","latitude":32.287821,"longitude":-110.979124,"stars":2.5,"review_count":5,"is_open":1,"attributes":"","categories":"Banks & Credit Unions, Financial Services","hours":{"Monday":"9:0-17:0","Tuesday":"9:0-17:0","Wednesday":"9:0-17:0","Thursday":"9:0-17:0","Friday":"9:0-18:0"}},{"business_id":"lvV8nlpLcTADBni2tSSv7g","name":"Dentistry in Paradise-Kevin Miller, DDS","address":"122 Patterson Ave, Bldg B Fl 1","city":"Santa Barbara","state":"CA","postal_code":"93111","latitude":34.4377205,"longitude":-119.808172,"stars":5,"review_count":39,"is_open":1,"attributes":"","categories":"Periodontists, Cosmetic Dentists, Dentists, General Dentistry, Health & Medical","hours":{"Monday":"8:30-17:0","Tuesday":"8:30-17:0","Wednesday":"8:30-17:0","Thursday":"8:30-17:0"}},{"business_id":"tA1IXs5GeNAqnJgaD4ajZA","name":"Rusty's Pizza Parlor","address":"5934 Calle Real","city":"Goleta","state":"CA","postal_code":"93117","latitude":34.4418261,"longitude":-119.8286821,"stars":3.5,"review_count":46,"is_open":1,"attributes":"","categories":"Restaurants, Salad, Pizza, Chicken Wings","hours":{"Monday":"0:0-0:0","Tuesday":"11:0-20:0","Wednesday":"11:0-0:0","Thursday":"11:0-0:0","Friday":"11:0-0:0","Saturday":"11:0-0:0","Sunday":"11:0-0:0"}},{"business_id":"dAY2Pj-o155nJTsW1AvBDw","name":"Old Navy","address":"4498 Lemay Ferry Rd","city":"Mehville","state":"MO","postal_code":"63129","latitude":38.499383,"longitude":-90.3337349,"stars":3,"review_count":12,"is_open":1,"attributes":"","categories":"Shopping, Women's Clothing, Fashion, Department Stores, Children's Clothing, Men's Clothing","hours":{"Monday":"10:0-21:0","Tuesday":"10:0-21:0","Wednesday":"10:0-21:0","Thursday":"10:0-21:0","Friday":"10:0-21:0","Saturday":"10:0-21:0","Sunday":"10:0-19:0"}},{"business_id":"-SgBPXjleGQqruChlFE03w","name":"Bruster's Real Ice Cream","address":"3630 Concord Rd","city":"Aston","state":"PA","postal_code":"19014","latitude":39.870909,"longitude":-75.450041,"stars":4.5,"review_count":13,"is_open":1,"attributes":"","categories":"Desserts, Food, Juice Bars & Smoothies, Ice Cream & Frozen Yogurt","hours":{"Monday":"12:0-21:0","Tuesday":"12:0-21:0","Wednesday":"12:0-21:0","Thursday":"12:0-21:0","Friday":"12:0-21:0","Saturday":"12:0-21:0","Sunday":"12:0-21:0"}},{"business_id":"j3vIYKoh7_BRC4SPopG2eg","name":"Watershed Nature Center","address":"1591 Tower Ave","city":"Edwardsville","state":"IL","postal_code":"62025","latitude":38.817067,"longitude":-89.9741734,"stars":5,"review_count":8,"is_open":1,"attributes":"","categories":"Educational Services, Elementary Schools, Recreation Centers, Education, Specialty Schools, Local Services, Local Flavor, Community Service/Non-Profit, Active Life, Parks","hours":null},{"business_id":"Yv638OoaYQm3qBuFm30AQA","name":"Europa Cafe","address":"12125 Indian Rocks Rd","city":"Largo","state":"FL","postal_code":"33774","latitude":27.8833438,"longitude":-82.8319339,"stars":3.5,"review_count":37,"is_open":0,"attributes":"","categories":"Breakfast & Brunch, Cafes, American (Traditional), Restaurants, American (New)","hours":{"Monday":"7:0-14:0","Tuesday":"7:0-14:0","Wednesday":"7:0-14:0","Thursday":"7:0-14:0","Friday":"7:0-14:0","Saturday":"7:0-14:0","Sunday":"7:0-14:0"}},{"business_id":"uoayXgI99KOaVATKmP_paA","name":"Dollar Book Swap","address":"50 E Greg St, Ste 108","city":"Sparks","state":"NV","postal_code":"89431","latitude":39.5222919,"longitude":-119.7419837,"stars":4.5,"review_count":10,"is_open":0,"attributes":"","categories":"Books, Mags, Music & Video, Bookstores, Music & DVDs, Shopping, Used Bookstore","hours":{"Monday":"0:0-0:0","Tuesday":"10:0-18:0","Wednesday":"10:0-18:0","Thursday":"10:0-18:0","Friday":"10:0-18:0","Saturday":"10:0-18:0","Sunday":"10:0-16:0"}},{"business_id":"3Ss8kYX0sIkCpJLTn6RArA","name":"Hotard Coaches","address":"2838 Touro St","city":"New Orleans","state":"LA","postal_code":"70122","latitude":29.9871822,"longitude":-90.061284,"stars":3,"review_count":8,"is_open":1,"attributes":"","categories":"Buses, Hotels & Travel, Event Planning & Services, Transportation, Party Bus Rentals","hours":{"Monday":"8:30-17:0","Tuesday":"8:30-17:0","Wednesday":"8:30-17:0","Thursday":"8:0-17:0","Friday":"8:0-17:0"}},{"business_id":"wEbAZMhKv_CHEug-8nkstw","name":"TOGO'S Sandwiches","address":"2970 N Eagle Rd, Ste 100","city":"Meridian","state":"ID","postal_code":"83646","latitude":43.6318709,"longitude":-116.3538826,"stars":3,"review_count":43,"is_open":0,"attributes":"","categories":"Delis, Sandwiches, Fast Food, Restaurants","hours":{"Monday":"10:30-20:0","Tuesday":"10:30-20:0","Wednesday":"10:30-20:0","Thursday":"10:30-20:0","Friday":"10:30-20:0","Saturday":"10:30-20:0","Sunday":"10:30-18:0"}},{"business_id":"sCm9ltAvA-G6PWdTOzf2EA","name":"Midwest Valet Parking","address":"","city":"Saint Louis","state":"MO","postal_code":"63156","latitude":38.6505185,"longitude":-90.2607174,"stars":2.5,"review_count":14,"is_open":1,"attributes":"","categories":"Automotive, Valet Services, Event Planning & Services, Parking","hours":null},{"business_id":"MCpNQcgMhieHhQeGYIgWtQ","name":"barre3 - Eagle","address":"2794 S Eagle Rd, Ste 120","city":"Eagle","state":"ID","postal_code":"83616","latitude":43.6693367355,"longitude":-116.3534627133,"stars":5,"review_count":8,"is_open":1,"attributes":"","categories":"Barre Classes, Pilates, Active Life, Fitness & Instruction, Yoga","hours":{"Monday":"8:15-18:45","Tuesday":"5:45-20:0","Wednesday":"8:15-18:45","Thursday":"5:45-20:0","Friday":"8:15-17:30","Saturday":"8:15-11:45","Sunday":"9:30-11:45"}},{"business_id":"fKvPZFJtkPGsWmJR4XSGzg","name":"St. Louis Bread","address":"6607 Chippewa St","city":"St. Louis","state":"MO","postal_code":"63109","latitude":38.591181,"longitude":-90.304981,"stars":2.5,"review_count":88,"is_open":1,"attributes":"","categories":"Soup, Sandwiches, Bagels, Restaurants, Salad, Breakfast & Brunch, Food","hours":{"Monday":"6:0-21:0","Tuesday":"6:0-21:0","Wednesday":"6:0-21:0","Thursday":"6:0-21:0","Friday":"6:0-21:0","Saturday":"6:0-21:0","Sunday":"6:30-21:0"}},{"business_id":"FuYIOTYgUNc49mnepC5djA","name":"Sedona Springs","address":"373 N Wilmot Rd","city":"Tucson","state":"AZ","postal_code":"85711","latitude":32.22589,"longitude":-110.86057,"stars":1.5,"review_count":27,"is_open":1,"attributes":"","categories":"Home Services, Real Estate, Apartments","hours":{"Monday":"9:0-18:0","Tuesday":"9:0-18:0","Wednesday":"9:0-18:0","Thursday":"9:0-18:0","Friday":"9:0-18:0","Saturday":"10:0-17:0","Sunday":"11:0-16:0"}},{"business_id":"vRh_VU4SVfLlRv8H2ji8Vg","name":"Acceptance Insurance","address":"317 Harding Pl, Ste A","city":"Nashville","state":"TN","postal_code":"37211","latitude":36.0866019,"longitude":-86.6928364,"stars":2,"review_count":5,"is_open":1,"attributes":"","categories":"Auto Insurance, Financial Services, Home & Rental Insurance, Insurance, Life Insurance","hours":{"Monday":"9:0-18:0","Tuesday":"9:0-18:0","Wednesday":"9:0-18:0","Thursday":"9:0-18:0","Friday":"9:0-19:0","Saturday":"9:0-17:0"}},{"business_id":"DSoWJ7Oi28i0mV1c90NMgQ","name":"ACE Auto Clinic","address":"1239 S Lincoln Ave","city":"Clearwater","state":"FL","postal_code":"33756","latitude":27.951816,"longitude":-82.7852871,"stars":3.5,"review_count":5,"is_open":1,"attributes":"","categories":"Automotive, Transmission Repair, Auto Parts & Supplies, Auto Repair, Tires, Commercial Truck Repair","hours":{"Monday":"9:0-17:0","Tuesday":"9:0-17:0","Wednesday":"9:0-17:0","Thursday":"9:0-17:0","Friday":"9:0-17:0"}},{"business_id":"SBY3ysBYUnxvrd4EdrSOQA","name":"Sweet Tomatoes Cafe & Catering","address":"8 West Ave","city":"Woodstown","state":"NJ","postal_code":"08098","latitude":39.6512491,"longitude":-75.3284632,"stars":4,"review_count":5,"is_open":0,"attributes":"","categories":"Caterers, Event Planning & Services","hours":null},{"business_id":"u9Bs8L3oI1A3hcXs6vOv8w","name":"Brave New Worlds","address":"55 North 2nd St","city":"Philadelphia","state":"PA","postal_code":"19106","latitude":39.9514184146,"longitude":-75.1432995758,"stars":4.5,"review_count":64,"is_open":1,"attributes":"","categories":"Toy Stores, Hobby Shops, Books, Mags, Music & Video, Shopping, Comic Books","hours":{"Monday":"11:0-20:0","Tuesday":"11:0-20:0","Wednesday":"11:0-20:0","Thursday":"11:0-20:0","Friday":"11:0-20:0","Saturday":"11:0-20:0","Sunday":"11:0-18:0"}},{"business_id":"fo3xfLizgaY4IeCv6Xyp9w","name":"Pigment Custom Tattooing & Piercing","address":"3328 Magazine St","city":"New Orleans","state":"LA","postal_code":"70115","latitude":29.9229985,"longitude":-90.0883114,"stars":4.5,"review_count":98,"is_open":1,"attributes":"","categories":"Tattoo, Piercing, Beauty & Spas","hours":{"Monday":"11:0-20:0","Tuesday":"11:0-20:0","Wednesday":"11:0-20:0","Thursday":"11:0-20:0","Friday":"11:0-20:0","Saturday":"11:0-20:0","Sunday":"11:0-20:0"}},{"business_id":"whqnrqE8My9rWzlRb5QTQQ","name":"Jimmy's Grocery","address":"4201 Dauphine St","city":"New Orleans","state":"LA","postal_code":"70117","latitude":29.9621095,"longitude":-90.0343442,"stars":3,"review_count":7,"is_open":0,"attributes":"","categories":"Grocery, Food","hours":null},{"business_id":"yNoZ7CyV9w1JtwzCMQpZEg","name":"Enterprise Rent-A-Car","address":"71 S Newtown Street Rd","city":"Newtown Square","state":"PA","postal_code":"19073","latitude":39.9847021788,"longitude":-75.3985625357,"stars":3.5,"review_count":10,"is_open":1,"attributes":"","categories":"Hotels & Travel, Car Rental","hours":{"Monday":"0:0-0:0","Tuesday":"7:30-17:30","Wednesday":"7:30-17:30","Thursday":"7:30-16:0","Friday":"7:30-17:30","Saturday":"9:0-12:0"}},{"business_id":"nvhKmuDC0Yz8aCU3RAjsOw","name":"Central Oddities","address":"2055 Central Ave","city":"St. Petersburg","state":"FL","postal_code":"33713","latitude":27.7710808,"longitude":-82.6612667,"stars":4.5,"review_count":5,"is_open":0,"attributes":"","categories":"Shopping, Antiques","hours":{"Tuesday":"12:0-18:0","Wednesday":"12:0-18:0","Thursday":"12:0-18:0","Friday":"12:0-18:0","Saturday":"12:0-18:0","Sunday":"12:0-17:0"}},{"business_id":"vIwdLdSMmGMjRin9OSxViA","name":"Mystic Restaurant","address":"515 Stump Rd","city":"Montgomeryville","state":"PA","postal_code":"18936","latitude":40.2326297,"longitude":-75.2280792,"stars":4,"review_count":56,"is_open":1,"attributes":"","categories":"Pizza, Restaurants","hours":{"Monday":"10:30-22:0","Tuesday":"10:30-22:0","Wednesday":"10:30-22:0","Thursday":"10:30-22:0","Friday":"10:30-22:0","Saturday":"10:30-22:0","Sunday":"11:30-21:0"}},{"business_id":"lYyVSIRL9uK1ng_EHL-_9A","name":"Moscow Neil L DDS","address":"510 Darby Rd, Ste 201","city":"Havertown","state":"PA","postal_code":"19083","latitude":39.9727501,"longitude":-75.3012666,"stars":1,"review_count":6,"is_open":1,"attributes":"","categories":"Health & Medical, Pediatric Dentists, Dentists, Oral Surgeons","hours":null},{"business_id":"VAgUTpcLcaSc0H4t3x1mxA","name":"Bella Body Medical Spa","address":"734 Stony Hill Rd, Fl 2","city":"Yardley","state":"PA","postal_code":"19067","latitude":40.2228071,"longitude":-74.8764681,"stars":4.5,"review_count":10,"is_open":1,"attributes":"","categories":"Health & Medical, Beauty & Spas, Medical Spas, Skin Care","hours":{"Monday":"10:0-16:0","Tuesday":"14:0-19:0","Wednesday":"10:0-16:0","Thursday":"10:0-19:0","Friday":"10:0-16:0"}},{"business_id":"MFPZ9I2lUPFrgqwCbphNKw","name":"Tuesday Morning","address":"911 Lithia Pinecrest Rd","city":"Brandon","state":"FL","postal_code":"33511","latitude":27.9249179408,"longitude":-82.2697509907,"stars":3.5,"review_count":5,"is_open":1,"attributes":"","categories":"Interior Design, Home Services","hours":null},{"business_id":"OQNYFl8FnHnP7yXEabjCnA","name":"Matthews Cleaners","address":"32 Yale Ave","city":"Morton","state":"PA","postal_code":"19070","latitude":39.907518,"longitude":-75.329147,"stars":4.5,"review_count":15,"is_open":1,"attributes":"","categories":"Laundry Services, Dry Cleaning & Laundry, Local Services","hours":null},{"business_id":"KMGGcG4AX83-PQlW6hHvTA","name":"Boston Market","address":"4801 Kietzke Ln","city":"Reno","state":"NV","postal_code":"89502","latitude":39.480666,"longitude":-119.7938542987,"stars":3,"review_count":104,"is_open":1,"attributes":"","categories":"Comfort Food, Restaurants, American (Traditional), Caterers, Event Planning & Services, Chicken Shop, Sandwiches","hours":{"Monday":"11:0-16:0","Tuesday":"11:0-16:0","Wednesday":"11:0-16:0","Thursday":"11:0-16:0","Friday":"11:0-16:0","Saturday":"11:0-16:0","Sunday":"11:0-16:0"}},{"business_id":"yaEC_LAfaoY4yZyubF-4Jw","name":"Morton's The Steakhouse","address":"41 E Washington St","city":"Indianapolis","state":"IN","postal_code":"46204","latitude":39.7668271,"longitude":-86.156587,"stars":4,"review_count":149,"is_open":0,"attributes":"","categories":"Steakhouses, American (Traditional), Seafood, Nightlife, Bars, Restaurants","hours":{"Monday":"0:0-0:0","Tuesday":"12:0-20:0","Wednesday":"12:0-20:0","Thursday":"12:0-22:0","Friday":"12:0-20:0","Saturday":"15:0-20:0","Sunday":"15:0-20:0"}},{"business_id":"rmqoJVwujDuCe6cOgdf36Q","name":"JCPenney","address":"3501 E Broadway","city":"Tucson","state":"AZ","postal_code":"85716","latitude":32.224873,"longitude":-110.9175,"stars":3.5,"review_count":24,"is_open":0,"attributes":"","categories":"Department Stores, Men's Clothing, Children's Clothing, Home & Garden, Appliances, Fashion, Women's Clothing, Shopping, Baby Gear & Furniture","hours":{"Tuesday":"7:0-22:0","Wednesday":"10:0-21:0","Thursday":"10:0-21:0","Friday":"10:0-21:0","Saturday":"10:0-21:0","Sunday":"7:0-18:0"}},{"business_id":"-NG3pA9LEXCxt0Fjd_aYYA","name":"Linda's Vegetarian Village Restaurant","address":"6381 Germantown Ave","city":"Philadelphia","state":"PA","postal_code":"19144","latitude":40.0458535,"longitude":-75.1820573,"stars":4.5,"review_count":45,"is_open":1,"attributes":"","categories":"Vegetarian, Live/Raw Food, Vegan, Restaurants","hours":{"Wednesday":"10:0-18:0","Thursday":"10:0-18:0","Friday":"10:0-18:0","Saturday":"10:0-18:0"}},{"business_id":"xVb4bkq9GhQIwArjJWNNmg","name":"Franklin Street Cleaners & Alterations","address":"101 S Franklin St","city":"Tampa","state":"FL","postal_code":"33602","latitude":27.9452956,"longitude":-82.457059,"stars":3,"review_count":8,"is_open":1,"attributes":"","categories":"Sewing & Alterations, Local Services, Laundry Services, Dry Cleaning & Laundry","hours":{"Monday":"7:30-18:30","Tuesday":"7:30-18:30","Wednesday":"7:30-18:30","Thursday":"7:30-18:30","Friday":"7:30-18:30"}},{"business_id":"SySmQMPGQELEH9GEgEHUxw","name":"Mabel's on 4th","address":"419 N 4th Ave","city":"Tucson","state":"AZ","postal_code":"85705","latitude":32.2269294954,"longitude":-110.965718776,"stars":4.5,"review_count":8,"is_open":0,"attributes":"","categories":"Home Decor, Tableware, Home & Garden, Kitchen & Bath, Shopping","hours":{"Monday":"11:0-18:0","Tuesday":"11:0-18:0","Wednesday":"11:0-18:0","Thursday":"11:0-18:0","Friday":"11:0-18:0","Saturday":"11:0-18:0","Sunday":"11:0-18:0"}},{"business_id":"nOlkYN683lWs7tluV-6R5w","name":"Nevada Heating","address":"140 Icon Ct","city":"Spanish Springs","state":"NV","postal_code":"89441","latitude":39.6749579,"longitude":-119.708288,"stars":4,"review_count":52,"is_open":1,"attributes":"","categories":"Heating & Air Conditioning/HVAC, Home Services, Water Heater Installation/Repair, Fireplace Services","hours":{"Monday":"0:0-0:0","Tuesday":"0:0-0:0","Wednesday":"0:0-0:0","Thursday":"0:0-0:0","Friday":"0:0-0:0","Saturday":"0:0-0:0","Sunday":"0:0-0:0"}},{"business_id":"pr6hYi_2YI2_jh4kOwGkTQ","name":"Pep Boys","address":"4491 E Speedway Blvd","city":"Tucson","state":"AZ","postal_code":"85712","latitude":32.236632,"longitude":-110.89757,"stars":2.5,"review_count":59,"is_open":1,"attributes":"","categories":"Automotive, Tires, Auto Repair, Oil Change Stations, Auto Parts & Supplies","hours":{"Monday":"8:0-18:0","Tuesday":"8:0-18:0","Wednesday":"8:0-18:0","Thursday":"8:0-18:0","Friday":"8:0-18:0","Saturday":"8:0-18:0","Sunday":"9:0-17:0"}},{"business_id":"EZguMgRyfRwcQ9QWKYk1OQ","name":"The Stogie Lounge","address":"10 E Hinckley Ave","city":"Ridley Park","state":"PA","postal_code":"19078","latitude":39.8790956,"longitude":-75.3227696,"stars":2,"review_count":9,"is_open":1,"attributes":"","categories":"Hookah Bars, Bars, Nightlife, Lounges","hours":{"Monday":"15:0-1:0","Tuesday":"15:0-1:0","Wednesday":"15:0-1:0","Thursday":"15:0-1:0","Friday":"15:0-1:0","Saturday":"15:0-1:0","Sunday":"15:0-1:0"}},{"business_id":"JtKCdcXdx4maHmqqU8jAhw","name":"Mary Helm Skin Care","address":"30 W Mission St","city":"Santa Barbara","state":"CA","postal_code":"93101","latitude":34.4301385,"longitude":-119.7158403,"stars":5,"review_count":5,"is_open":1,"attributes":"","categories":"Beauty & Spas, Skin Care","hours":null},{"business_id":"yiQGnvAFhcraxDbgDVbBQQ","name":"Central West End Veterinary Clinic","address":"4131 Lindell Blvd","city":"St. Louis","state":"MO","postal_code":"63108","latitude":38.6414114,"longitude":-90.2458858,"stars":4.5,"review_count":15,"is_open":1,"attributes":"","categories":"Veterinarians, Pets, Pet Services","hours":{"Monday":"9:0-19:0","Tuesday":"9:0-17:0","Wednesday":"9:0-19:0","Thursday":"9:0-17:0","Friday":"9:0-17:0","Saturday":"9:0-15:0"}},{"business_id":"XiC7tQANHZNtTF0a73kN3g","name":"Square One","address":"701 Poydras St, Ste 122","city":"New Orleans","state":"LA","postal_code":"70139","latitude":29.9502652571,"longitude":-90.0710580258,"stars":4.5,"review_count":21,"is_open":1,"attributes":"","categories":"Buffets, American (Traditional), Restaurants, Vietnamese, Noodles, Chinese, Asian Fusion","hours":{"Monday":"11:0-14:0","Tuesday":"11:0-14:0","Wednesday":"11:0-14:0","Thursday":"11:0-14:0","Friday":"11:0-14:0"}},{"business_id":"3B36-VPyR1-mWsHoObtgCQ","name":"The Industry Hair Studio","address":"4045 E Broadway Blvd","city":"Tucson","state":"AZ","postal_code":"85711","latitude":32.221884,"longitude":-110.905678,"stars":4.5,"review_count":25,"is_open":0,"attributes":"","categories":"Beauty & Spas, Nail Salons, Professional Services, Hair Salons, Tattoo","hours":{"Tuesday":"9:0-17:0","Wednesday":"9:0-17:0","Thursday":"9:0-17:0","Friday":"9:0-17:0","Saturday":"9:0-17:0"}},{"business_id":"1gusOUHcPCeorq8EHWZaKA","name":"Crossroads Coffee House","address":"1270 Township Line Rd","city":"Drexel Hill","state":"PA","postal_code":"19026","latitude":39.9665744,"longitude":-75.2986159,"stars":4,"review_count":5,"is_open":0,"attributes":"","categories":"Food, Coffee & Tea, Sandwiches, Restaurants","hours":null},{"business_id":"RCZ5vwN1OYi1FVjT7T8B-Q","name":"Pro Nails","address":"1427 N Milwaukee St","city":"Boise","state":"ID","postal_code":"83704","latitude":43.6177656,"longitude":-116.2851787,"stars":3,"review_count":17,"is_open":1,"attributes":"","categories":"Beauty & Spas, Nail Salons","hours":null},{"business_id":"0B6JY3Ky8iB52-rPooB2Tw","name":"Neighbors Germantown","address":"313 Jefferson St","city":"Nashville","state":"TN","postal_code":"37208","latitude":36.174531,"longitude":-86.78566,"stars":3.5,"review_count":66,"is_open":1,"attributes":"","categories":"Sandwiches, Barbeque, Bars, Nightlife, Burgers, American (Traditional), Restaurants","hours":{"Monday":"11:0-3:0","Tuesday":"11:0-3:0","Wednesday":"11:0-3:0","Thursday":"11:0-3:0","Friday":"11:0-3:0","Saturday":"10:0-3:0","Sunday":"10:0-3:0"}},{"business_id":"LqclLpxDv_GxEB4T0VYxeA","name":"Re-I Chin Photography","address":"","city":"Saint Louis","state":"MO","postal_code":"63108","latitude":38.647459,"longitude":-90.25731,"stars":5,"review_count":9,"is_open":1,"attributes":"","categories":"Photographers, Event Photography, Professional Services, Event Planning & Services, Session Photography","hours":{"Monday":"9:0-17:0","Tuesday":"9:0-17:0","Wednesday":"9:0-17:0","Thursday":"9:0-17:0","Friday":"9:0-17:0","Saturday":"9:0-17:0","Sunday":"9:0-17:0"}},{"business_id":"VfMajgMtSnjbtgDh22j8Yw","name":"Sansum Clinic Prescription Pharmacy at Pueblo","address":"317 W Pueblo St","city":"Santa Barbara","state":"CA","postal_code":"93105","latitude":34.4293384,"longitude":-119.7224266,"stars":3,"review_count":16,"is_open":1,"attributes":"","categories":"Psychologists, Doctors, Counseling & Mental Health, Obstetricians & Gynecologists, Medical Centers, Drugstores, Pharmacy, Shopping, Health & Medical","hours":{"Monday":"0:0-0:0","Tuesday":"8:30-18:0","Wednesday":"8:30-18:0","Thursday":"8:30-18:0","Friday":"8:30-18:0"}},{"business_id":"7OJAL1aoOn-67iu9X-wptA","name":"Design For Vision","address":"1 East Trenton Ave","city":"Morrisville","state":"PA","postal_code":"19067","latitude":40.2161302606,"longitude":-74.7823476791,"stars":4,"review_count":6,"is_open":1,"attributes":"","categories":"Eyewear & Opticians, Optometrists, Ophthalmologists, Health & Medical, Shopping, Doctors","hours":{"Monday":"0:0-0:0","Tuesday":"9:0-17:0","Wednesday":"9:0-17:0","Thursday":"9:0-19:0","Friday":"9:0-16:0","Saturday":"9:0-15:0"}},{"business_id":"YsDj1FEDJ_-VbtuQwrvZYg","name":"Mama Russo‚Äôs Pizzeria","address":"608 Philadelphia Ave","city":"Feasterville-Trevose","state":"PA","postal_code":"19053","latitude":40.144018,"longitude":-74.9827254,"stars":5,"review_count":14,"is_open":1,"attributes":"","categories":"Italian, Restaurants, Pizza","hours":{"Monday":"0:0-0:0","Tuesday":"10:30-21:0","Wednesday":"10:30-21:0","Thursday":"10:30-21:0","Friday":"10:30-17:0","Saturday":"10:30-21:0"}},{"business_id":"W70W-8Cd3dnAxwZ9wGCWnA","name":"Reid Park Rose Garden","address":"900 S Randolph Way","city":"Tucson","state":"AZ","postal_code":"85716","latitude":32.209728098,"longitude":-110.9240264979,"stars":4.5,"review_count":7,"is_open":1,"attributes":"","categories":"Parks, Local Flavor, Active Life","hours":null},{"business_id":"msL8cR7IUjK7f4gmPA7CWQ","name":"Fatty's Bar","address":"800 W Idaho St, Ste 200","city":"Boise","state":"ID","postal_code":"83702","latitude":43.6167623,"longitude":-116.2028283,"stars":2.5,"review_count":25,"is_open":0,"attributes":"","categories":"Dance Clubs, Bars, Nightlife","hours":{"Monday":"19:0-2:0","Tuesday":"13:0-2:0","Wednesday":"13:0-2:0","Thursday":"13:0-2:0","Friday":"13:0-2:0","Saturday":"13:0-2:0","Sunday":"20:0-2:0"}},{"business_id":"6mP6BQu5fVtM-ZrSum-v0A","name":"China Fun","address":"11020 4th St N","city":"St. Petersburg","state":"FL","postal_code":"33716","latitude":27.8716203,"longitude":-82.6389394,"stars":3.5,"review_count":61,"is_open":1,"attributes":"","categories":"Chinese, Restaurants","hours":{"Monday":"16:0-22:0","Tuesday":"11:0-22:0","Wednesday":"11:0-22:0","Thursday":"11:0-22:0","Friday":"11:0-23:0","Saturday":"11:0-23:0","Sunday":"12:0-22:0"}},{"business_id":"5c-wl9EAFwM66bv9pTtQ1w","name":"Econo Auto Rentals","address":"9017 E Adamo Dr, Ste 115","city":"Tampa","state":"FL","postal_code":"33619","latitude":27.948818,"longitude":-82.354864,"stars":3.5,"review_count":6,"is_open":1,"attributes":"","categories":"Car Rental, Hotels & Travel","hours":{"Monday":"8:0-18:0","Tuesday":"8:0-18:0","Wednesday":"8:0-18:0","Thursday":"8:0-18:0","Friday":"8:0-18:0","Saturday":"10:0-14:0"}},{"business_id":"xsbAV-wtWiZTSRxJd3vsDw","name":"Cherry Hill Mall","address":"2000 Rt 38","city":"Cherry Hill","state":"NJ","postal_code":"08002","latitude":39.941788,"longitude":-75.026222,"stars":3.5,"review_count":165,"is_open":1,"attributes":"","categories":"Shopping Centers, Shopping","hours":{"Monday":"0:0-0:0","Tuesday":"10:0-22:0","Wednesday":"10:0-22:0","Thursday":"10:0-18:0","Friday":"10:0-18:0","Saturday":"10:0-21:0","Sunday":"10:0-21:0"}},{"business_id":"hgpsKS7TwVNDeE_simztPw","name":"Firestone Complete Auto Care","address":"307 Village Center Dr","city":"Swedesboro","state":"NJ","postal_code":"08085","latitude":39.75615,"longitude":-75.35351,"stars":3,"review_count":21,"is_open":1,"attributes":"","categories":"Auto Repair, Automotive, Tires, Oil Change Stations, Auto Parts & Supplies","hours":{"Monday":"0:0-0:0","Tuesday":"7:0-19:0","Wednesday":"7:0-19:0","Thursday":"7:0-19:0","Friday":"7:0-16:0","Saturday":"7:0-18:0","Sunday":"9:0-17:0"}},{"business_id":"kwoonODRuYSXhhFkCZDiZg","name":"Lamerson Cindy L MD","address":"650 Sierra Rose Dr","city":"Reno","state":"NV","postal_code":"89511","latitude":39.4731753,"longitude":-119.7986613,"stars":2.5,"review_count":5,"is_open":1,"attributes":"","categories":"Skin Care, Health & Medical, Laser Hair Removal, Doctors, Beauty & Spas, Dermatologists, Hair Removal","hours":null},{"business_id":"qsLIuY5iERjJ_PJRwZVeRQ","name":"Tampa Premium Outlets","address":"2300 Grand Cypress Dr","city":"Lutz","state":"FL","postal_code":"33559","latitude":28.1901243,"longitude":-82.3912825,"stars":4,"review_count":222,"is_open":1,"attributes":"","categories":"Shopping Centers, Outlet Stores, Restaurants, Fashion, Shopping","hours":{"Monday":"11:0-20:0","Tuesday":"11:0-20:0","Wednesday":"10:0-21:0","Thursday":"10:0-21:0","Friday":"10:0-18:0","Saturday":"10:0-18:0","Sunday":"12:0-18:0"}},{"business_id":"h19B8HRvPoFyWMQoc8Iytw","name":"The Bothy Wine & Whisky Bar","address":"10124 124 Street NW","city":"Edmonton","state":"AB","postal_code":"T5N 1P6","latitude":53.542459,"longitude":-113.536289,"stars":4,"review_count":25,"is_open":0,"attributes":"","categories":"Beer, Wine & Spirits, Nightlife, Restaurants, Wine Bars, Food, Irish, Bars","hours":null},{"business_id":"111xH-Jad3rSZBgGRjcxaw","name":"Temple University Dental School Clinic","address":"3223 N Broad St","city":"Philadelphia","state":"PA","postal_code":"19140","latitude":40.002206,"longitude":-75.1519535,"stars":2.5,"review_count":28,"is_open":1,"attributes":"","categories":"Dentists, Health & Medical, General Dentistry","hours":null},{"business_id":"1G7liHNDbavZzqe_F30aPQ","name":"Shave No More Laser Hair Reduction","address":"2745 High Ridge Blvd, Ste 3","city":"High Ridge","state":"MO","postal_code":"63049","latitude":38.465033,"longitude":-90.52824,"stars":4.5,"review_count":7,"is_open":1,"attributes":"","categories":"Massage, Skin Care, Doctors, Beauty & Spas, Medical Spas, Laser Hair Removal, Massage Therapy, Tanning, Cosmetic Surgeons, Health & Medical, Hair Removal","hours":{"Monday":"9:0-17:0","Tuesday":"12:0-19:0","Thursday":"12:0-19:0","Friday":"9:0-17:0"}},{"business_id":"YSNzRBcsjix427VMq22Yvg","name":"Film King","address":"8701 66th St N","city":"Pinellas Park","state":"FL","postal_code":"33782","latitude":27.8512677,"longitude":-82.7282888,"stars":5,"review_count":16,"is_open":1,"attributes":"","categories":"Glass & Mirrors, Car Window Tinting, Auto Glass Services, Windshield Installation & Repair, Automotive, Home Services","hours":{"Monday":"9:0-17:30","Tuesday":"9:0-17:30","Wednesday":"9:0-17:30","Thursday":"9:0-17:30","Friday":"9:0-17:30","Saturday":"8:0-17:0"}},{"business_id":"ZNMLzDtpAr-EBqc5hITIaQ","name":"The Halal Guys Nashville","address":"7618 Hwy 70 S, Ste 101","city":"Nashville","state":"TN","postal_code":"37221","latitude":36.0804596,"longitude":-86.9485722166,"stars":3.5,"review_count":64,"is_open":0,"attributes":"","categories":"Restaurants, Middle Eastern, Chicken Shop, Halal, Mediterranean","hours":{"Monday":"11:0-21:0","Tuesday":"11:0-21:0","Wednesday":"11:0-21:0","Thursday":"11:0-21:0","Friday":"11:0-21:0","Saturday":"11:0-21:0","Sunday":"11:0-21:0"}},{"business_id":"T72tpiOTqLPOwuXTgDWxnQ","name":"Daiki Hibachi and Sushi","address":"7557 Haverford Ave","city":"Philadelphia","state":"PA","postal_code":"19151","latitude":39.9793613702,"longitude":-75.2685242146,"stars":4,"review_count":69,"is_open":1,"attributes":"","categories":"Restaurants, Japanese, Sushi Bars","hours":{"Monday":"11:30-22:0","Tuesday":"11:30-22:0","Wednesday":"11:30-22:0","Thursday":"11:30-22:0","Friday":"11:30-23:0","Saturday":"11:30-23:0","Sunday":"11:30-22:0"}},{"business_id":"XUkgX1wnKSuuTT-D9_QPyw","name":"Seminole Scooters","address":"6401 49th St N","city":"Pinellas Park","state":"FL","postal_code":"33781","latitude":27.8303563,"longitude":-82.6996093,"stars":3.5,"review_count":8,"is_open":1,"attributes":"","categories":"Automotive, Motorcycle Repair, Motorcycle Dealers","hours":{"Monday":"9:0-17:0","Tuesday":"9:0-17:0","Wednesday":"9:0-17:0","Thursday":"9:0-17:0","Friday":"9:0-17:0","Saturday":"9:0-14:0"}},{"business_id":"NoFVNG8po-U9rsFwC8UYvA","name":"Fine Wine & Good Spirits - Premium Collection","address":"119 W City Ave","city":"Bala Cynwyd","state":"PA","postal_code":"19004","latitude":39.9984644,"longitude":-75.2330931,"stars":3,"review_count":10,"is_open":1,"attributes":"","categories":"Food, Beer, Wine & Spirits","hours":{"Monday":"0:0-0:0","Tuesday":"9:0-18:0","Wednesday":"9:0-18:0","Thursday":"9:0-18:0","Friday":"9:0-18:0","Saturday":"9:0-18:0"}},{"business_id":"OB3AHrPH1JgSJuHX2gN8Wg","name":"A Doggies Dream","address":"2697 Mill St","city":"Reno","state":"NV","postal_code":"89502","latitude":39.5180622,"longitude":-119.77761,"stars":3,"review_count":51,"is_open":1,"attributes":"","categories":"Pets, Pet Sitting, Pet Groomers, Pet Services","hours":{"Monday":"6:30-18:30","Tuesday":"6:30-18:30","Wednesday":"6:30-18:30","Thursday":"6:30-18:30","Friday":"6:30-18:30","Saturday":"6:30-18:30","Sunday":"6:30-18:30"}},{"business_id":"C9z5l-m4aGRFu4vHYvO0oA","name":"Infinity Westshore Apartments","address":"4800 S West Shore Blvd","city":"Tampa","state":"FL","postal_code":"33611","latitude":27.8946598,"longitude":-82.5253904,"stars":2.5,"review_count":10,"is_open":1,"attributes":"","categories":"Real Estate, Apartments, Home Services","hours":{"Monday":"9:0-18:0","Tuesday":"9:0-18:0","Wednesday":"9:0-18:0","Thursday":"9:0-18:0","Friday":"9:0-18:0","Saturday":"10:0-17:0","Sunday":"12:0-17:0"}},{"business_id":"gNng1UJdy3aUrA5lbDaDlg","name":"Nola Dogs Treats and Boutique","address":"813 Royal St","city":"New Orleans","state":"LA","postal_code":"70116","latitude":29.95932,"longitude":-90.06424,"stars":4.5,"review_count":9,"is_open":0,"attributes":"","categories":"Pet Stores, Pets","hours":{"Monday":"11:0-17:0","Thursday":"11:0-17:0","Friday":"11:0-17:0","Saturday":"11:0-17:0","Sunday":"11:0-17:0"}},{"business_id":"dCEMUcF2kO7iUiGn2mOt6Q","name":"China City","address":"16049 Tampa Palms Blvd W","city":"Tampa","state":"FL","postal_code":"33647","latitude":28.09983,"longitude":-82.399827,"stars":3,"review_count":66,"is_open":1,"attributes":"","categories":"Restaurants, Chinese","hours":{"Monday":"11:0-22:0","Tuesday":"11:0-22:0","Wednesday":"11:0-22:0","Thursday":"11:0-22:0","Friday":"11:0-23:0","Saturday":"11:0-23:0","Sunday":"11:30-22:0"}},{"business_id":"nlJlQrgirN35roawzL6GCA","name":"East Star Chinese Restaurant","address":"81 Lancaster Ave, Ste 3","city":"Malvern","state":"PA","postal_code":"19355","latitude":40.0443267398,"longitude":-75.5299498445,"stars":3.5,"review_count":40,"is_open":1,"attributes":"","categories":"Chinese, Restaurants, Buffets","hours":{"Tuesday":"10:30-22:0","Wednesday":"10:30-22:0","Thursday":"10:30-22:0","Friday":"10:30-22:30","Saturday":"10:30-22:30","Sunday":"11:30-22:0"}},{"business_id":"XkT7BBWel0FIR8vQDMXCQA","name":"Optical Outlets","address":"39310 US Hwy 19 N","city":"Tarpon Springs","state":"FL","postal_code":"34689","latitude":28.143511,"longitude":-82.746548,"stars":3,"review_count":16,"is_open":1,"attributes":"","categories":"Health & Medical, Eyewear & Opticians, Shopping, Optometrists","hours":{"Monday":"9:0-18:0","Tuesday":"9:0-18:0","Wednesday":"9:0-18:0","Thursday":"9:0-18:0","Friday":"9:0-18:0","Saturday":"8:0-15:0"}},{"business_id":"XA5Jh9a68iC3aV9QT7HaKQ","name":"Kolman Dental, PC","address":"6112 N College Ave","city":"Indianapolis","state":"IN","postal_code":"46220","latitude":39.8660015,"longitude":-86.146453,"stars":5,"review_count":10,"is_open":1,"attributes":"","categories":"General Dentistry, Dentists, Health & Medical","hours":{"Monday":"9:0-18:0","Tuesday":"9:0-18:0","Wednesday":"9:0-18:0","Thursday":"8:0-17:0","Friday":"8:0-17:0"}},{"business_id":"bT-YK_qvFWdE1-DHugSiFw","name":"Denny's","address":"4111 Timberlake Dr","city":"Pontoon Beach","state":"IL","postal_code":"62040","latitude":38.7468637,"longitude":-90.0720743,"stars":2,"review_count":25,"is_open":0,"attributes":"","categories":"Breakfast & Brunch, American (Traditional), Diners, Restaurants, American (New)","hours":{"Monday":"7:0-16:0","Tuesday":"7:0-16:0","Wednesday":"7:0-16:0","Thursday":"7:0-16:0","Friday":"7:0-16:0","Saturday":"7:0-16:0","Sunday":"7:0-16:0"}},{"business_id":"DQqhPm6Uddb1LO-O14VKoA","name":"Salon Red","address":"35599 US Hwy 19 N","city":"Palm Harbor","state":"FL","postal_code":"34684","latitude":28.0956676,"longitude":-82.7379268,"stars":4,"review_count":16,"is_open":0,"attributes":"","categories":"Makeup Artists, Hair Removal, Beauty & Spas, Hair Salons, Skin Care, Waxing, Blow Dry/Out Services","hours":{"Monday":"9:0-21:0","Sunday":"15:0-21:0"}},{"business_id":"iOOL2MWsuYoMgwqPTmq4aA","name":"Starbucks","address":"400 Mandalay Ave","city":"Clearwater","state":"FL","postal_code":"33767","latitude":27.978651,"longitude":-82.82763,"stars":2.5,"review_count":46,"is_open":1,"attributes":"","categories":"Coffee & Tea, Food, Breakfast & Brunch, Restaurants","hours":{"Monday":"6:0-19:0","Tuesday":"6:0-19:0","Wednesday":"6:0-19:0","Thursday":"6:0-19:0","Friday":"6:0-20:0","Saturday":"6:0-20:0","Sunday":"6:0-19:0"}},{"business_id":"Fy3_fyER7Us93L1nLCG57w","name":"Subway","address":"2406 Land O Lakes Blvd","city":"Land O Lakes","state":"FL","postal_code":"34639","latitude":28.1918014096,"longitude":-82.4639444986,"stars":2.5,"review_count":6,"is_open":1,"attributes":"","categories":"Sandwiches, Restaurants, Fast Food","hours":{"Monday":"0:0-0:0","Tuesday":"8:0-22:0","Wednesday":"8:0-22:0","Thursday":"8:0-22:0","Friday":"10:0-16:0","Saturday":"8:0-22:0","Sunday":"9:0-21:0"}},{"business_id":"xp6vA6twsAVJYkgl0fphLg","name":"360","address":"2999 Street Rd","city":"Bensalem","state":"PA","postal_code":"19020","latitude":40.1009224517,"longitude":-74.9349975586,"stars":2.5,"review_count":11,"is_open":1,"attributes":"","categories":"Nightlife, Dance Clubs, Lounges, Bars","hours":{"Wednesday":"17:0-2:0","Thursday":"17:0-2:0","Friday":"17:0-2:0","Saturday":"17:0-2:0","Sunday":"15:0-21:0"}},{"business_id":"R0mHWvY_JvI7kUTTym7C8Q","name":"AnBrea's Beauty Salon","address":"1166 Easton Road","city":"Abington","state":"PA","postal_code":"19001","latitude":40.1235429,"longitude":-75.1330574,"stars":5,"review_count":8,"is_open":1,"attributes":"","categories":"Beauty & Spas, Hair Salons, Hair Stylists, Blow Dry/Out Services","hours":{"Monday":"0:0-0:0","Tuesday":"9:0-14:0","Wednesday":"9:0-17:0","Thursday":"9:0-17:0","Friday":"9:0-17:0","Saturday":"8:0-15:0"}},{"business_id":"Z1RfR8zskBy_c8vOAhDOFw","name":"The Kitchen Table Cafe","address":"7005 Saint Claude Ave","city":"Arabi","state":"LA","postal_code":"70032","latitude":29.9569885,"longitude":-90.0020626,"stars":4.5,"review_count":53,"is_open":1,"attributes":"","categories":"Restaurants, Cafes, American (New)","hours":{"Tuesday":"11:0-21:0","Wednesday":"11:0-21:0","Thursday":"11:0-21:0","Friday":"11:0-21:0","Saturday":"11:0-21:0"}},{"business_id":"Pr5TeLRBEc59FlRF_Rc7Vw","name":"Mangos Refresqueria Y Cafe","address":"4990 S Campbell Ave","city":"Tucson","state":"AZ","postal_code":"85706","latitude":32.1616002,"longitude":-110.9438877,"stars":3.5,"review_count":52,"is_open":1,"attributes":"","categories":"Restaurants, Juice Bars & Smoothies, Cafes, Food, Coffee & Tea","hours":{"Monday":"11:30-21:30","Tuesday":"11:30-21:30","Wednesday":"11:30-21:30","Thursday":"11:30-21:30","Friday":"11:30-21:30","Saturday":"11:30-21:30","Sunday":"11:30-21:30"}},{"business_id":"252yQi-wbcR0-GpS4AwRPA","name":"Advanced Chiropractic & Wellness Center","address":"701 Limekiln Pike","city":"Ambler","state":"PA","postal_code":"19002","latitude":40.1744460456,"longitude":-75.1829421865,"stars":5,"review_count":24,"is_open":1,"attributes":"","categories":"Nutritionists, Weight Loss Centers, Massage Therapy, Chiropractors, Health & Medical, Physical Therapy","hours":{"Monday":"9:0-20:0","Wednesday":"9:0-20:0","Thursday":"14:0-20:0","Friday":"9:0-17:0","Saturday":"11:0-15:0"}},{"business_id":"uhtWkEVXRoOdfYw7EGX4UA","name":"Durango's Saloon","address":"120 E Philadelphia Ave","city":"Boyertown","state":"PA","postal_code":"19512","latitude":40.3320984,"longitude":-75.6356516,"stars":4,"review_count":33,"is_open":1,"attributes":"","categories":"Restaurants, Nightlife, Steakhouses, Bars","hours":{"Wednesday":"16:0-21:0","Thursday":"16:0-21:0","Friday":"16:0-0:0","Saturday":"16:0-2:0"}},{"business_id":"o6SEe-dEMsIsR2GjOK1xTw","name":"Asian Eyebrow Threading","address":"5420 E Broadway, Ste 250","city":"Tucson","state":"AZ","postal_code":"85711","latitude":32.2215168,"longitude":-110.8768364,"stars":3.5,"review_count":69,"is_open":1,"attributes":"","categories":"Threading Services, Eyebrow Services, Hair Removal, Beauty & Spas","hours":{"Monday":"11:0-18:0","Tuesday":"11:0-18:0","Wednesday":"11:0-18:0","Thursday":"11:0-18:0","Friday":"11:0-18:0","Saturday":"11:0-18:0","Sunday":"11:0-18:0"}},{"business_id":"HIJ-GgmUSS2T9dzWt5BQNA","name":"The Simple Greek","address":"12908 N Dale Mabry Hwy","city":"Tampa","state":"FL","postal_code":"33618","latitude":28.0638603866,"longitude":-82.5043798238,"stars":4,"review_count":37,"is_open":0,"attributes":"","categories":"Restaurants, Greek, Mediterranean","hours":null},{"business_id":"7zOA-BKQ-JliT6SThhi9Gg","name":"Capell Flooring and Interiors","address":"1763 W Marcon Ln, Ste 100","city":"Meridian","state":"ID","postal_code":"83642","latitude":43.6085402,"longitude":-116.4153585,"stars":5,"review_count":7,"is_open":1,"attributes":"","categories":"Home & Garden, Shopping, Carpeting, Countertop Installation, Contractors, Kitchen & Bath, Home Services, Flooring, Rugs","hours":{"Monday":"0:0-0:0","Tuesday":"10:0-17:0","Wednesday":"10:0-17:0","Thursday":"10:0-17:0","Friday":"10:0-17:0"}},{"business_id":"AOHchh9mVhPTp8166kpImA","name":"Arby's","address":"1130 Murfreesboro Rd","city":"Franklin","state":"TN","postal_code":"37064","latitude":35.9154501,"longitude":-86.8340057,"stars":2.5,"review_count":12,"is_open":1,"attributes":"","categories":"Fast Food, Sandwiches, Restaurants","hours":null},{"business_id":"I_1GURBE73oKkPHNCvCCiQ","name":"Pizza Mania","address":"1734 Bruce B Downs Blvd","city":"Wesley Chapel","state":"FL","postal_code":"33543","latitude":28.1824915,"longitude":-82.3508896,"stars":4,"review_count":145,"is_open":1,"attributes":"","categories":"Pizza, Restaurants","hours":{"Monday":"0:0-0:0","Tuesday":"11:0-21:30","Wednesday":"11:0-21:30","Thursday":"11:0-21:30","Friday":"11:0-21:30","Saturday":"11:0-18:30","Sunday":"12:0-20:0"}},{"business_id":"ojV7HdHIAIOHjN24yv5pYA","name":"Jimbo's Grill","address":"3544 Mount Juliet Rd","city":"Mount Juliet","state":"TN","postal_code":"37122","latitude":36.2193479,"longitude":-86.515252,"stars":4,"review_count":9,"is_open":0,"attributes":"","categories":"Food, Restaurants, Burgers, Hot Dogs","hours":{"Monday":"11:0-20:0","Tuesday":"11:0-20:0","Wednesday":"11:0-20:0","Thursday":"11:0-20:0","Friday":"11:0-20:0","Saturday":"11:0-20:0"}},{"business_id":"O-UOybvMutXl97R3dlvkyA","name":"Blaze Pizza","address":"1338 99 Street NW","city":"Edmonton","state":"AB","postal_code":"T6N 0A8","latitude":53.4425156,"longitude":-113.4832826,"stars":4,"review_count":42,"is_open":1,"attributes":"","categories":"Fast Food, Restaurants, Salad, Pizza","hours":{"Monday":"0:0-0:0","Tuesday":"11:0-22:0","Wednesday":"11:0-22:0","Thursday":"11:0-22:0","Friday":"11:0-22:0","Saturday":"11:0-22:0","Sunday":"11:0-22:0"}},{"business_id":"p5CsyhiB8iv7baedWzg_6g","name":"Sports Monster","address":"11279 St Clement Ln","city":"Saint Louis","state":"MO","postal_code":"63074","latitude":38.607897,"longitude":-90.4364719,"stars":2.5,"review_count":11,"is_open":1,"attributes":"","categories":"Sports Clubs, Print Media, Professional Services, Local Services, Active Life, Mass Media, Amateur Sports Teams, Printing Services, Event Planning & Services","hours":{"Monday":"9:0-17:30","Tuesday":"9:0-17:30","Wednesday":"9:0-17:30","Thursday":"9:0-17:30","Friday":"9:0-17:30"}},{"business_id":"uDJQxGBC--6knbNVT58naA","name":"Thirsty's Neighborhood Grill & Bar","address":"2422 N Pantano Rd","city":"Tucson","state":"AZ","postal_code":"85715","latitude":32.2512217,"longitude":-110.82278,"stars":3,"review_count":44,"is_open":1,"attributes":"","categories":"American (New), Pubs, Nightlife, American (Traditional), Karaoke, Bars, Restaurants","hours":null},{"business_id":"cAM5bzRSCIA402mUBbLXiw","name":"The Nail Pawlor","address":"","city":"Nashville","state":"TN","postal_code":"37211","latitude":36.1282798087,"longitude":-86.7570082911,"stars":5,"review_count":9,"is_open":1,"attributes":"","categories":"Pet Groomers, Pet Services, Pets","hours":{"Tuesday":"8:0-17:0","Wednesday":"8:0-17:0","Thursday":"8:0-17:0","Friday":"8:0-17:0","Saturday":"10:0-15:0"}},{"business_id":"-i5trjfNFIvUUrFaG64Uzg","name":"Visual Effects Salon & Spa","address":"4485 N Dresden Pl","city":"Garden City","state":"ID","postal_code":"83714","latitude":43.649081,"longitude":-116.2827453,"stars":3.5,"review_count":11,"is_open":1,"attributes":"","categories":"Beauty & Spas, Nail Salons, Day Spas, Tattoo, Tanning, Hair Salons","hours":null},{"business_id":"3rjqMsaHJXHeGy81Nj5wlg","name":"L & S Nail Salon","address":"1709 Butler Pike","city":"Conshohocken","state":"PA","postal_code":"19428","latitude":40.0894261,"longitude":-75.2906741,"stars":2,"review_count":5,"is_open":0,"attributes":"","categories":"Beauty & Spas, Nail Salons","hours":{"Monday":"9:30-19:0","Tuesday":"9:30-19:0","Wednesday":"9:30-19:0","Thursday":"9:30-19:0","Friday":"9:0-19:0","Saturday":"9:0-18:0"}},{"business_id":"lLzKVCIxNyKdQUeicpvaLg","name":"Panini's of Westchase","address":"12227 Linebaugh Ave","city":"Tampa","state":"FL","postal_code":"33626","latitude":28.0559299,"longitude":-82.6269803,"stars":2.5,"review_count":34,"is_open":0,"attributes":"","categories":"Restaurants, American (Traditional), Bars, American (New), Beer Gardens, Nightlife, Sandwiches, Sports Bars","hours":{"Monday":"11:0-1:0","Tuesday":"11:0-1:0","Wednesday":"11:0-1:0","Thursday":"11:0-2:0","Friday":"11:0-2:0","Saturday":"11:0-2:0","Sunday":"11:0-1:0"}},{"business_id":"9wVRkUSzK8NveuO0vaUhEA","name":"Rothman Animal Hospital","address":"420 W Crescent Blvd","city":"Collingswood","state":"NJ","postal_code":"08107","latitude":39.9162379,"longitude":-75.0897907,"stars":3.5,"review_count":46,"is_open":1,"attributes":"","categories":"Pet Services, Pet Groomers, Veterinarians, Pets, Pet Sitting, Pet Boarding","hours":{"Monday":"0:0-0:0","Tuesday":"8:0-21:0","Wednesday":"8:0-21:0","Thursday":"8:0-21:0","Friday":"8:0-21:0","Saturday":"8:0-16:0"}},{"business_id":"l-LfqtfzzkNVDIFPJwuIYw","name":"Great Clips","address":"1475 Old York Rd","city":"Abington","state":"PA","postal_code":"19001","latitude":40.1240143,"longitude":-75.1157248,"stars":2.5,"review_count":14,"is_open":1,"attributes":"","categories":"Hair Salons, Beauty & Spas","hours":{"Monday":"9:0-21:0","Tuesday":"9:0-21:0","Wednesday":"9:0-21:0","Thursday":"9:0-21:0","Friday":"9:0-21:0","Saturday":"8:0-18:0","Sunday":"9:0-17:0"}},{"business_id":"FiIIuZGT-VJEju-bwNQTuA","name":"Ulta Beauty","address":"197 Westbank Expy, Ste 1330","city":"Gretna","state":"LA","postal_code":"70053","latitude":29.921897,"longitude":-90.039236,"stars":3.5,"review_count":9,"is_open":0,"attributes":"","categories":"Shopping, Hair Salons, Beauty & Spas, Skin Care, Cosmetics & Beauty Supply","hours":{"Monday":"10:0-19:0","Tuesday":"10:0-19:0","Wednesday":"10:0-19:0","Thursday":"10:0-19:0","Friday":"10:0-19:0","Saturday":"10:0-19:0","Sunday":"11:0-18:0"}},{"business_id":"raWeQDY-yLXK3IH-Wam_2w","name":"Painted Dreams Farm","address":"941 Park Ave","city":"Newtown","state":"PA","postal_code":"18940","latitude":40.281551,"longitude":-75.005692,"stars":5,"review_count":5,"is_open":1,"attributes":"","categories":"Active Life, Horseback Riding","hours":null},{"business_id":"xqK_Llsauh92u7iovSKPGw","name":"H&R Block","address":"1927 Walnut St","city":"Philadelphia","state":"PA","postal_code":"19103","latitude":39.950640996,"longitude":-75.1736710221,"stars":2.5,"review_count":7,"is_open":1,"attributes":"","categories":"Accountants, Financial Advising, Financial Services, Professional Services, Tax Services","hours":{"Monday":"0:0-0:0","Tuesday":"9:0-20:0","Wednesday":"9:0-20:0","Thursday":"9:0-20:0","Friday":"9:0-20:0","Saturday":"9:0-18:0","Sunday":"9:0-17:0"}},{"business_id":"SSazv1QWTBzGVnsrqgGVAg","name":"Woodland Building Supply","address":"4701 Woodland Ave","city":"Philadelphia","state":"PA","postal_code":"19143","latitude":39.9430779,"longitude":-75.2113497,"stars":3,"review_count":5,"is_open":1,"attributes":"","categories":"Building Supplies, Home Services","hours":{"Monday":"6:30-16:0","Tuesday":"6:30-16:0","Wednesday":"6:30-16:0","Thursday":"6:30-16:0","Friday":"6:30-16:0","Saturday":"7:30-13:0"}},{"business_id":"L23-T3yNwJMdU-Z7OXF87A","name":"Family Fitness Centers","address":"4028 Little Rd","city":"New Port Richey","state":"FL","postal_code":"34655","latitude":28.218116,"longitude":-82.6645517,"stars":2.5,"review_count":12,"is_open":0,"attributes":"","categories":"Trainers, Fitness & Instruction, Active Life, Gyms","hours":{"Monday":"5:0-22:0","Tuesday":"5:0-22:0","Wednesday":"5:0-22:0","Thursday":"5:0-22:0","Friday":"5:0-21:0","Saturday":"8:0-18:0","Sunday":"8:0-18:0"}},{"business_id":"G_h3OH7YLOH0iqW4YQU2jQ","name":"Bricco Pizza Romana","address":"111 S Independence Mall E","city":"Philadelphia","state":"PA","postal_code":"19106","latitude":39.9497563,"longitude":-75.1480623,"stars":3.5,"review_count":12,"is_open":1,"attributes":"","categories":"Pizza, Restaurants","hours":null},{"business_id":"m4s6xuuBnoObBxNmWnkKeg","name":"Thai Tida By Mike & Natta","address":"236 N Union St","city":"Lambertville","state":"NJ","postal_code":"08530","latitude":40.3745689,"longitude":-74.9476604,"stars":3.5,"review_count":79,"is_open":1,"attributes":"","categories":"Restaurants, Gluten-Free, Thai, Vegan","hours":{"Monday":"0:0-0:0","Tuesday":"14:30-20:30","Wednesday":"14:30-20:30","Thursday":"14:30-20:30","Friday":"16:30-21:0","Saturday":"14:30-20:30","Sunday":"14:30-20:30"}},{"business_id":"V_ZGhWMmVLEFo6gDMJjUvw","name":"Hhgregg","address":"101 Gravois Bluffs Blvd","city":"Fenton","state":"MO","postal_code":"63026","latitude":38.5066144,"longitude":-90.4466828,"stars":1,"review_count":25,"is_open":0,"attributes":"","categories":"Shopping, Home & Garden, Electronics, Furniture Stores, Appliances","hours":null},{"business_id":"3bMVhRoYXU4UND8G0xLflw","name":"Man vs Fries","address":"701 Cathedral Rd","city":"Philadelphia","state":"PA","postal_code":"19128","latitude":40.063497,"longitude":-75.236561,"stars":4,"review_count":7,"is_open":1,"attributes":"","categories":"Restaurants, Food Delivery Services, Fast Food, Pop-Up Restaurants, Sandwiches, Mexican, Food","hours":{"Monday":"11:0-2:0","Tuesday":"11:0-2:0","Wednesday":"11:0-2:0","Thursday":"11:0-2:0","Friday":"11:0-2:0","Saturday":"11:0-2:0","Sunday":"11:0-2:0"}},{"business_id":"UxLkYuEVdlMYwIw6ioZesQ","name":"Ombi Restaurant","address":"2214 Elliston Pl","city":"Nashville","state":"TN","postal_code":"37203","latitude":36.151017,"longitude":-86.804933,"stars":4,"review_count":10,"is_open":0,"attributes":"","categories":"Restaurants, American (New)","hours":{"Monday":"17:0-22:0","Tuesday":"17:0-22:0","Wednesday":"17:0-22:0","Thursday":"17:0-22:0","Friday":"17:0-2:0","Saturday":"17:0-2:0","Sunday":"17:0-22:0"}},{"business_id":"iyxXTOHSYnSI40JSDRtlJA","name":"Orthodontic Partners","address":"105 Los Altos Pkwy, Ste 111","city":"Sparks","state":"NV","postal_code":"89436","latitude":39.5828298,"longitude":-119.7405996,"stars":4.5,"review_count":10,"is_open":1,"attributes":"","categories":"Dentists, Health & Medical, Orthodontists","hours":{"Monday":"0:0-0:0","Tuesday":"8:0-17:0","Wednesday":"8:0-17:0","Thursday":"8:0-17:0"}},{"business_id":"qauNuzGr6cmAuT7K7FzX5w","name":"Atlas Chiropractic","address":"333 Bainbridge St, Fl 1","city":"Philadelphia","state":"PA","postal_code":"19147","latitude":39.940886,"longitude":-75.148877,"stars":5,"review_count":39,"is_open":1,"attributes":"","categories":"Health & Medical, Chiropractors, Beauty & Spas, Massage","hours":{"Monday":"15:0-18:30","Tuesday":"10:0-14:0","Wednesday":"15:0-18:30","Friday":"15:0-18:0","Saturday":"10:0-12:0"}},{"business_id":"rK_q5gPSNdXBR53lDok-ug","name":"The Skin Studio","address":"104 E Park Dr, Ste 100","city":"Brentwood","state":"TN","postal_code":"37027","latitude":36.036051,"longitude":-86.7903702,"stars":5,"review_count":6,"is_open":1,"attributes":"","categories":"Beauty & Spas, Waxing, Day Spas, Hair Removal, Skin Care","hours":{"Monday":"9:0-17:30","Tuesday":"9:0-17:30","Wednesday":"9:0-17:30","Friday":"10:0-17:30","Saturday":"9:0-15:0"}},{"business_id":"9o8RiObxO9L7gXzLHt-deA","name":"Subway","address":"2610 Bayshore Blvd","city":"Dunedin","state":"FL","postal_code":"34698","latitude":28.0505541,"longitude":-82.781659,"stars":2,"review_count":12,"is_open":1,"attributes":"","categories":"Sandwiches, Restaurants, Fast Food","hours":{"Monday":"8:0-22:0","Tuesday":"8:0-22:0","Wednesday":"8:0-22:0","Thursday":"8:0-22:0","Friday":"8:0-22:0","Saturday":"8:0-22:0","Sunday":"8:0-22:0"}},{"business_id":"LFTOIz1syowvnPw1pB0xVw","name":"Checkers","address":"6200 9th St North","city":"St. Petersburg","state":"FL","postal_code":"33702","latitude":27.8288583,"longitude":-82.6475161,"stars":1.5,"review_count":10,"is_open":1,"attributes":"","categories":"Restaurants, Burgers, Fast Food, American (Traditional)","hours":{"Monday":"10:0-3:0","Tuesday":"10:0-3:0","Wednesday":"10:0-3:0","Thursday":"10:0-4:0","Friday":"10:0-4:0","Saturday":"10:0-4:0","Sunday":"10:0-3:0"}},{"business_id":"onLvuAKTdabG_tSXkuqYCQ","name":"Ry's Bagels","address":"800 N Delsea Dr","city":"Glassboro","state":"NJ","postal_code":"08028","latitude":39.723877,"longitude":-75.115792,"stars":3,"review_count":76,"is_open":1,"attributes":"","categories":"Cafes, Sandwiches, Restaurants, Donuts, Bagels, Food","hours":{"Monday":"0:0-0:0","Tuesday":"7:0-13:0","Wednesday":"7:0-13:0","Thursday":"7:0-13:0","Friday":"7:0-13:0","Saturday":"7:0-13:0","Sunday":"7:0-13:0"}},{"business_id":"uKKazAAmCyWjYKtyp0MtKQ","name":"Thistle","address":"234 E 22nd St, Ste 120","city":"Tucson","state":"AZ","postal_code":"85713","latitude":32.206501,"longitude":-110.965971,"stars":5,"review_count":13,"is_open":1,"attributes":"","categories":"Shopping, Florists, Event Planning & Services, Floral Designers, Flowers & Gifts, Gift Shops","hours":{"Monday":"0:0-0:0","Tuesday":"10:0-15:0","Wednesday":"10:0-15:0","Thursday":"10:0-15:0","Friday":"10:0-15:0","Saturday":"10:0-15:0"}},{"business_id":"96QKJXOE8QzMxPwk1D2-xA","name":"Eagle Day Spa","address":"619 E State St","city":"Eagle","state":"ID","postal_code":"83616","latitude":43.6942973182,"longitude":-116.3462231,"stars":4.5,"review_count":31,"is_open":1,"attributes":"","categories":"Nail Salons, Day Spas, Beauty & Spas, Massage, Massage Therapy, Health & Medical","hours":{"Monday":"0:0-0:0","Tuesday":"9:0-19:0","Wednesday":"9:0-19:0","Thursday":"9:0-19:0","Friday":"9:0-19:0","Saturday":"9:0-18:0"}},{"business_id":"RKk_Z3875_PRu00Aw50ElQ","name":"Sang Tong Thai","address":"233 S Broadway","city":"Pennsville Township","state":"NJ","postal_code":"08070","latitude":39.6428734915,"longitude":-75.5189349378,"stars":5,"review_count":32,"is_open":1,"attributes":"","categories":"Thai, Restaurants","hours":{"Tuesday":"11:0-21:0","Wednesday":"11:0-21:0","Thursday":"11:0-21:0","Friday":"11:0-21:0","Saturday":"11:0-21:0","Sunday":"11:0-21:0"}},{"business_id":"OL9ziZsbpY8Ck4PVBTzCIg","name":"Pearl's Oyster Bar","address":"1 Ameristar Blvd","city":"St. Charles","state":"MO","postal_code":"63301","latitude":38.766912,"longitude":-90.4853357,"stars":4,"review_count":53,"is_open":1,"attributes":"","categories":"Asian Fusion, American (New), Seafood, Restaurants, Italian","hours":{"Monday":"0:0-0:0","Thursday":"17:0-21:0","Friday":"17:0-21:0","Saturday":"17:0-21:0","Sunday":"17:0-21:0"}},{"business_id":"grhrDnNaRZCoOX0RCaBNVQ","name":"Extended Stay America - Philadelphia - King of Prussia","address":"400 American Avenue","city":"King of Prussia","state":"PA","postal_code":"19406","latitude":40.0952403031,"longitude":-75.4005727137,"stars":1.5,"review_count":49,"is_open":1,"attributes":"","categories":"Hotels & Travel, Hotels, Event Planning & Services","hours":{"Monday":"0:0-0:0","Tuesday":"0:0-0:0","Wednesday":"0:0-0:0","Thursday":"0:0-0:0","Friday":"0:0-0:0","Saturday":"0:0-0:0","Sunday":"0:0-0:0"}},{"business_id":"RlcLm5PzxO0ZUlLCHyhK1A","name":"S & G Garage Doors & Operators","address":"10901 Earhart Dr","city":"New Port Richey","state":"FL","postal_code":"34654","latitude":28.2770683,"longitude":-82.6348601,"stars":5,"review_count":8,"is_open":1,"attributes":"","categories":"Garage Door Services, Home Services","hours":{"Monday":"0:0-0:0","Tuesday":"0:0-0:0","Wednesday":"0:0-0:0","Thursday":"0:0-0:0","Friday":"0:0-0:0","Saturday":"0:0-0:0","Sunday":"0:0-0:0"}},{"business_id":"Q9DOr3yRPc8S6QB9RZzhPw","name":"Stillwater Palms - Laramar Group","address":"2350 Cypress Pond Rd","city":"Palm Harbor","state":"FL","postal_code":"34683","latitude":28.1140803,"longitude":-82.742595,"stars":2,"review_count":8,"is_open":0,"attributes":"","categories":"Apartments, Real Estate, Home Services","hours":{"Monday":"9:0-18:0","Tuesday":"9:0-18:0","Wednesday":"9:0-18:0","Thursday":"9:0-18:0","Friday":"9:0-18:0","Saturday":"10:0-17:0","Sunday":"13:0-17:0"}},{"business_id":"ko7QYcEWxMo_9hZU5zc3cg","name":"Franklin Orthopaedics & Sports Medicine","address":"3310 Aspen Grove Dr","city":"Franklin","state":"TN","postal_code":"37067","latitude":35.9449284,"longitude":-86.8272687,"stars":2.5,"review_count":7,"is_open":1,"attributes":"","categories":"Sports Medicine, Pediatricians, Orthopedists, Doctors, Health & Medical","hours":{"Monday":"9:0-17:0","Tuesday":"9:0-17:0","Wednesday":"9:0-17:0","Thursday":"9:0-17:0","Friday":"9:0-17:0"}},{"business_id":"rLhvrwxGREfdE1eMr3bG5Q","name":"Sunrise Complete Auto Service","address":"300 E Luzerne St","city":"Philadelphia","state":"PA","postal_code":"19124","latitude":40.009905,"longitude":-75.121077,"stars":4,"review_count":12,"is_open":1,"attributes":"","categories":"Auto Repair, Oil Change Stations, Auto Glass Services, Body Shops, Automotive, Towing","hours":{"Monday":"7:0-18:0","Tuesday":"7:0-18:0","Wednesday":"7:0-18:0","Thursday":"7:0-18:0","Friday":"7:0-18:0","Saturday":"7:0-13:0"}},{"business_id":"jx1Qc-qPxIvTYP2ewWkRWg","name":"Dillinger Brewing Company","address":"402 East 9th St","city":"Tucson","state":"AZ","postal_code":"85705","latitude":32.2236269,"longitude":-110.9652399,"stars":4,"review_count":7,"is_open":1,"attributes":"","categories":"Food, Breweries, Nightlife, Bars, Beer Bar","hours":{"Monday":"15:0-22:0","Tuesday":"15:0-22:0","Wednesday":"15:0-22:0","Thursday":"15:0-22:0","Friday":"15:0-23:0","Saturday":"12:0-23:0","Sunday":"12:0-20:0"}},{"business_id":"H0eXuemfOAG3QMstAJ_cMQ","name":"Odette's","address":"274 S River Rd","city":"New Hope","state":"PA","postal_code":"18938","latitude":40.3556673,"longitude":-74.9483225,"stars":3,"review_count":41,"is_open":1,"attributes":"","categories":"Restaurants, Bars, Lounges, Nightlife","hours":{"Monday":"9:0-17:0","Tuesday":"9:0-17:0","Wednesday":"9:0-17:0","Thursday":"9:0-17:0","Friday":"9:0-17:0","Saturday":"9:0-17:0","Sunday":"9:0-17:0"}},{"business_id":"pTy5sLUejtfNVMSw--L3oA","name":"TGM Shadeland Station Apartments","address":"7135 Thatcher Dr","city":"Indianapolis","state":"IN","postal_code":"46256","latitude":39.885224,"longitude":-86.03963,"stars":5,"review_count":8,"is_open":1,"attributes":"","categories":"Apartments, Real Estate, Home Services","hours":{"Monday":"9:0-18:0","Tuesday":"9:0-19:0","Wednesday":"9:0-19:0","Thursday":"9:0-19:0","Friday":"9:0-18:0","Saturday":"10:0-17:0","Sunday":"12:0-17:0"}},{"business_id":"iurf86L-nRrXNOTV4rfPjg","name":"Brick House Dueling Piano Bar","address":"6235 N Guilford Ave","city":"Indianapolis","state":"IN","postal_code":"46220","latitude":39.8695101047,"longitude":-86.142976152,"stars":4,"review_count":58,"is_open":1,"attributes":"","categories":"Food, Bars, Nightlife, Piano Bars, Lounges","hours":{"Tuesday":"18:0-3:0","Wednesday":"18:0-3:0","Thursday":"18:0-3:0","Friday":"18:0-3:0","Saturday":"18:0-3:0","Sunday":"17:0-3:0"}},{"business_id":"n3sRn8jx0zT5ew4tjjrRBw","name":"Spring Garden Restaurant","address":"400 Spring Garden St","city":"Philadelphia","state":"PA","postal_code":"19123","latitude":39.9609007304,"longitude":-75.145153154,"stars":4,"review_count":87,"is_open":1,"attributes":"","categories":"Breakfast & Brunch, Restaurants","hours":{"Monday":"8:0-17:0","Tuesday":"8:0-17:0","Wednesday":"8:0-17:0","Thursday":"8:0-17:0","Friday":"8:0-17:0","Saturday":"8:0-17:0"}},{"business_id":"iCVrRHR_Yxr6mHCpObnE1g","name":"AmeriThai","address":"1244 Snyder Ave","city":"Philadelphia","state":"PA","postal_code":"19148","latitude":39.9239494074,"longitude":-75.1674575204,"stars":4,"review_count":120,"is_open":1,"attributes":"","categories":"Thai, Restaurants","hours":{"Tuesday":"11:0-21:0","Wednesday":"11:0-21:0","Thursday":"11:0-21:0","Friday":"11:0-21:0","Saturday":"11:0-21:0","Sunday":"12:0-21:0"}},{"business_id":"c3h2uqdWwd2U6yuTXGoz9A","name":"Dine the District Food Tour","address":"135 N Sierra St","city":"Reno","state":"NV","postal_code":"89501","latitude":39.525788,"longitude":-119.814726,"stars":3.5,"review_count":22,"is_open":1,"attributes":"","categories":"Arts & Entertainment, Food, Festivals","hours":{"Saturday":"13:0-16:0"}},{"business_id":"jOqi0XSNE8Rfd15ORCIcfg","name":"Rosalie Apothecary","address":"3201 Toulouse St","city":"New Orleans","state":"LA","postal_code":"70119","latitude":29.9734361,"longitude":-90.0893885,"stars":4,"review_count":27,"is_open":1,"attributes":"","categories":"Specialty Food, Herbs & Spices, Food","hours":{"Tuesday":"10:0-17:0","Wednesday":"10:0-17:0","Thursday":"10:0-17:0","Friday":"10:0-17:0","Saturday":"10:0-17:0"}},{"business_id":"larqjPOY5TfoFcQoK_7FgA","name":"Saltine Fine Food and Drink","address":"1918 West End Ave","city":"Nashville","state":"TN","postal_code":"37203","latitude":36.1518751,"longitude":-86.7990435,"stars":4,"review_count":291,"is_open":0,"attributes":"","categories":"Live/Raw Food, Bars, Nightlife, Desserts, Comfort Food, Cajun/Creole, Food, Restaurants, Cocktail Bars, Seafood","hours":{"Monday":"11:0-22:0","Tuesday":"11:0-22:0","Wednesday":"11:0-22:0","Thursday":"11:0-22:0","Friday":"11:0-23:0","Saturday":"11:0-23:0","Sunday":"11:0-22:0"}},{"business_id":"sph2mShCCZ1DAtm-xRPPvg","name":"Francesca Wellness Massage","address":"5250 Neil Rd, Ste 301B1","city":"Reno","state":"NV","postal_code":"89502","latitude":39.4742742,"longitude":-119.7776518,"stars":5,"review_count":6,"is_open":0,"attributes":"","categories":"Massage Therapy, Active Life, Fitness & Instruction, Health & Medical, Massage, Beauty & Spas","hours":{"Monday":"10:0-16:30","Tuesday":"10:0-17:0","Wednesday":"10:0-17:0","Friday":"9:0-17:0"}},{"business_id":"3LI8UDH94zmJxTTVm2rXIA","name":"Relievus","address":"9815 Roosevelt Blvd, Unit J","city":"Philadelphia","state":"PA","postal_code":"19114","latitude":40.0856834,"longitude":-75.0221416,"stars":4.5,"review_count":8,"is_open":1,"attributes":"","categories":"Neurologist, Health & Medical, Medical Centers, Doctors, Pain Management","hours":{"Monday":"9:0-17:30","Tuesday":"9:0-17:30","Wednesday":"9:0-17:30","Thursday":"9:0-17:30","Friday":"9:0-17:30"}},{"business_id":"rRYoUQuNXhAKTQ6EFecl3g","name":"H H Gregg","address":"719 Thompson Ln","city":"Nashville","state":"TN","postal_code":"37211","latitude":36.1090104,"longitude":-86.7640961,"stars":2.5,"review_count":7,"is_open":0,"attributes":"","categories":"Appliances, Shopping, Local Services, Appliances & Repair, Electronics, Home & Garden","hours":{"Monday":"10:0-21:0","Tuesday":"10:0-21:0","Wednesday":"10:0-21:0","Thursday":"10:0-21:0","Friday":"10:0-21:0","Saturday":"10:0-21:0","Sunday":"11:0-19:0"}},{"business_id":"FyyOULcQpoWBtetKX0xlIA","name":"Plymouth Meeting Mall","address":"500 W Germantown Pike","city":"Plymouth Meeting","state":"PA","postal_code":"19462","latitude":40.1159439,"longitude":-75.2819933,"stars":3,"review_count":62,"is_open":1,"attributes":"","categories":"Fashion, Shopping, Shopping Centers, Department Stores","hours":{"Monday":"0:0-0:0","Tuesday":"10:0-22:0","Wednesday":"10:0-22:0","Thursday":"10:0-18:0","Friday":"10:0-18:0","Saturday":"10:0-21:0","Sunday":"10:0-21:0"}},{"business_id":"iYuf9PMq3OGeKODnNL_O5Q","name":"On the Nail","address":"339 E Lincoln Hwy","city":"Exton","state":"PA","postal_code":"19341","latitude":40.0293124,"longitude":-75.6208997,"stars":4,"review_count":63,"is_open":1,"attributes":"","categories":"Waxing, Beauty & Spas, Nail Salons, Hair Removal, Eyelash Service","hours":{"Monday":"0:0-0:0","Tuesday":"10:0-20:0","Wednesday":"10:0-20:0","Thursday":"10:0-20:0","Friday":"10:0-20:0","Saturday":"10:0-18:0","Sunday":"10:0-17:0"}},{"business_id":"-TSPsir3LSLO9vVBkvkqUw","name":"The Coffee Bean & Tea Leaf","address":"4991 Carpinteria Ave","city":"Carpinteria","state":"CA","postal_code":"93013","latitude":34.3989642,"longitude":-119.5187298,"stars":3.5,"review_count":53,"is_open":0,"attributes":"","categories":"Coffee & Tea, Food","hours":{"Monday":"5:30-21:0","Tuesday":"5:30-21:0","Wednesday":"5:30-21:0","Thursday":"5:30-21:0","Friday":"5:30-21:0","Saturday":"6:0-21:0","Sunday":"6:0-21:0"}},{"business_id":"yq8n50XCH6pgW7wayJxlOQ","name":"Taco Bell","address":"1208 Murfreesboro Rd","city":"Franklin","state":"TN","postal_code":"37064","latitude":35.917572,"longitude":-86.846351,"stars":2.5,"review_count":12,"is_open":1,"attributes":"","categories":"Tex-Mex, Restaurants, Fast Food, Mexican, Tacos, Breakfast & Brunch","hours":{"Monday":"7:0-0:30","Tuesday":"7:0-0:30","Wednesday":"7:0-0:30","Thursday":"7:0-0:30","Friday":"7:0-1:30","Saturday":"7:0-1:30","Sunday":"7:0-0:30"}},{"business_id":"HkcXz6jtVdIPUcKkY3cL5A","name":"Nashville Sports Leagues","address":"3 City Ave, Ste 800","city":"Nashville","state":"TN","postal_code":"37209","latitude":36.1521589,"longitude":-86.820154,"stars":3.5,"review_count":5,"is_open":1,"attributes":"","categories":"Amateur Sports Teams, Active Life","hours":{"Monday":"9:0-16:0","Tuesday":"9:0-16:0","Wednesday":"9:0-16:0","Thursday":"9:0-16:0","Friday":"9:0-16:0"}},{"business_id":"n24APiymWrGNklmgtqJQlw","name":"La-Z-Boy Home Furnishings & D√©cor","address":"2006-101 Street NW","city":"Edmonton","state":"AB","postal_code":"T6N 1J2","latitude":53.449522,"longitude":-113.4872177,"stars":2.5,"review_count":8,"is_open":1,"attributes":"","categories":"Home & Garden, Interior Design, Home Decor, Home Services, Furniture Stores, Shopping","hours":{"Monday":"10:0-18:0","Tuesday":"10:0-18:0","Wednesday":"10:0-18:0","Thursday":"10:0-18:0","Friday":"10:0-18:0","Saturday":"10:0-18:0","Sunday":"12:0-17:0"}},{"business_id":"2KhwR5XB2u88e3AgH4mq5w","name":"Monty's Pizza","address":"1027 Potter Greens Drive NW","city":"Edmonton","state":"AB","postal_code":"T5T 6A4","latitude":53.5140625092,"longitude":-113.6766934863,"stars":4.5,"review_count":42,"is_open":1,"attributes":"","categories":"Pizza, Restaurants, Italian, American (Traditional)","hours":{"Monday":"11:0-23:0","Tuesday":"11:0-23:0","Wednesday":"11:0-23:0","Thursday":"11:0-23:0","Friday":"11:0-0:0","Saturday":"11:0-0:0","Sunday":"11:0-22:0"}},{"business_id":"Lcq9avXp70XNZyhTWAq_sw","name":"The Standard St. Louis","address":"3853 Forest Park Ave","city":"St Louis","state":"MO","postal_code":"63108","latitude":38.6349603748,"longitude":-90.241919921,"stars":1.5,"review_count":10,"is_open":1,"attributes":"","categories":"Real Estate, Home Services, Apartments, University Housing","hours":{"Monday":"9:0-18:0","Tuesday":"9:0-18:0","Wednesday":"9:0-18:0","Thursday":"9:0-18:0","Friday":"9:0-18:0","Saturday":"10:0-16:0","Sunday":"12:0-16:0"}},{"business_id":"RjKTDimEapGJGtxIMnIwbQ","name":"Cloud Coffee","address":"2001 N 13th St","city":"Philadelphia","state":"PA","postal_code":"19122","latitude":39.9829493,"longitude":-75.1547108,"stars":4,"review_count":12,"is_open":1,"attributes":"","categories":"Coffee & Tea, Food, Arts & Entertainment, Art Galleries, Food Trucks, Shopping","hours":{"Monday":"7:30-18:0","Tuesday":"7:30-18:0","Wednesday":"7:30-18:0","Thursday":"7:30-18:0","Friday":"7:30-18:0"}},{"business_id":"-WDgTVpOnos_74mgs-nKeg","name":"Creative Dinettes & Bar Stools Furniture Store","address":"1329 Hurffville Rd","city":"Deptford","state":"NJ","postal_code":"08096","latitude":39.8209861,"longitude":-75.0905368,"stars":5,"review_count":5,"is_open":1,"attributes":"","categories":"Kitchen & Bath, Mattresses, Home & Garden, Shopping, Furniture Stores, Home Services, Interior Design, Home Decor","hours":{"Monday":"0:0-0:0","Tuesday":"10:0-18:0","Wednesday":"10:0-21:0","Thursday":"10:0-18:0","Friday":"10:0-12:0","Saturday":"10:0-18:0","Sunday":"11:0-17:0"}},{"business_id":"vCCK94i-qZWeVAD3-vPNaA","name":"Sorrentino's","address":"10844 95 St","city":"Edmonton","state":"AB","postal_code":"T5H 2E4","latitude":53.5556616,"longitude":-113.4845926,"stars":3.5,"review_count":17,"is_open":1,"attributes":"","categories":"Italian, Restaurants","hours":{"Monday":"17:0-21:0","Tuesday":"17:0-21:0","Wednesday":"17:0-21:0","Thursday":"17:0-21:0","Friday":"17:0-22:0","Saturday":"17:0-22:0"}},{"business_id":"kR-HIJxTW07phwkR5ha1ww","name":"Orange Grove Animal Hospital","address":"3091 W Orange Grove Rd","city":"Tucson","state":"AZ","postal_code":"85741","latitude":32.32318,"longitude":-111.0327,"stars":4,"review_count":31,"is_open":1,"attributes":"","categories":"Veterinarians, Pets, Pet Services, Pet Sitting, Pet Stores","hours":{"Monday":"7:0-19:0","Tuesday":"7:0-19:0","Wednesday":"7:0-19:0","Thursday":"7:0-19:0","Friday":"7:0-19:0","Saturday":"8:0-12:0"}},{"business_id":"O8xd0PQZfwHIIZhNRmZ_5A","name":"St. Louis Bread","address":"99 Grasso Plz","city":"St. Louis","state":"MO","postal_code":"63123","latitude":38.55102,"longitude":-90.335838,"stars":2.5,"review_count":37,"is_open":1,"attributes":"","categories":"Bagels, Soup, Restaurants, Sandwiches, Food, Salad, Breakfast & Brunch, Coffee & Tea","hours":{"Monday":"6:0-21:0","Tuesday":"6:0-21:0","Wednesday":"6:0-21:0","Thursday":"6:0-21:0","Friday":"6:0-21:0","Saturday":"6:0-21:0","Sunday":"6:0-21:0"}},{"business_id":"gSqoTzmlKlOB6Da25mZxBQ","name":"Shell Gas Station","address":"4840 Ridgemoor Blvd","city":"Palm Harbor","state":"FL","postal_code":"34685","latitude":28.0999743745,"longitude":-82.6935708411,"stars":1.5,"review_count":7,"is_open":0,"attributes":"","categories":"Automotive, Gas Stations","hours":null},{"business_id":"27SBmvJN4XjC_rNFKFhyHw","name":"Rexall Drug Stores","address":"10818 Jasper Avenue","city":"Edmonton","state":"AB","postal_code":"T5K 2V2","latitude":53.5411121832,"longitude":-113.5068101426,"stars":2.5,"review_count":6,"is_open":1,"attributes":"","categories":"Shopping, Drugstores","hours":null},{"business_id":"69k7MF2-nXq-tNNHrJYONw","name":"Chipotle Mexican Grill","address":"3925 Walnut St, Ste 128","city":"Philadelphia","state":"PA","postal_code":"19104","latitude":39.954101,"longitude":-75.200795,"stars":2.5,"review_count":146,"is_open":1,"attributes":"","categories":"Fast Food, Food, Restaurants, Mexican","hours":{"Monday":"0:0-0:0","Tuesday":"10:45-22:0","Wednesday":"10:45-22:0","Thursday":"10:45-22:0","Friday":"10:45-22:0","Saturday":"10:45-22:0","Sunday":"10:45-22:0"}},{"business_id":"I9v-617xe2zTTahd9IobyQ","name":"Seed Sprout Spoon","address":"5700 Leona St","city":"St. Louis","state":"MO","postal_code":"63116","latitude":38.5716705189,"longitude":-90.2655763968,"stars":4.5,"review_count":58,"is_open":1,"attributes":"","categories":"American (New), Bartenders, Restaurants, Vegan, Event Planning & Services, Caterers, Vegetarian, Breakfast & Brunch","hours":{"Monday":"0:0-0:0","Tuesday":"9:0-17:0","Wednesday":"9:0-17:0","Thursday":"9:0-17:0","Friday":"9:0-17:0"}},{"business_id":"9Uczm0SLoHhopacyKf3-1g","name":"Taphouse 23","address":"266 E 4th St","city":"Bridgeport","state":"PA","postal_code":"19405","latitude":40.1046899,"longitude":-75.3355014,"stars":3.5,"review_count":198,"is_open":1,"attributes":"","categories":"Nightlife, American (New), Pubs, Restaurants, Bars","hours":{"Wednesday":"11:30-23:0","Thursday":"16:0-0:0","Friday":"11:30-0:0","Saturday":"11:30-0:0","Sunday":"11:30-0:0"}},{"business_id":"OYDAQKuxU8TeXRdER0qbkg","name":"Home2 Suites by Hilton Warminster Horsham","address":"230 Veterans Way","city":"Warminster","state":"PA","postal_code":"18974","latitude":40.19596257,"longitude":-75.0784984231,"stars":3.5,"review_count":13,"is_open":1,"attributes":"","categories":"Hotels, Hotels & Travel, Event Planning & Services","hours":{"Monday":"0:0-0:0","Tuesday":"0:0-0:0","Wednesday":"0:0-0:0","Thursday":"0:0-0:0","Friday":"0:0-0:0","Saturday":"0:0-0:0","Sunday":"0:0-0:0"}},{"business_id":"EjuhuChTEGX1eT0t-8OUfg","name":"James G. Kaskey Memorial Park","address":"","city":"Philadelphia","state":"PA","postal_code":"19104","latitude":39.9583587,"longitude":-75.1953934,"stars":5,"review_count":11,"is_open":1,"attributes":"","categories":"Botanical Gardens, Arts & Entertainment, Parks, Active Life","hours":{"Monday":"8:0-20:0","Tuesday":"8:0-20:0","Wednesday":"8:0-20:0","Thursday":"8:0-20:0","Friday":"8:0-20:0","Saturday":"8:0-20:0","Sunday":"8:0-20:0"}},{"business_id":"DmgKbYTP5Po2nYx3oxk3CA","name":"Great Clips","address":"8037 Watson Rd","city":"Saint Louis","state":"MO","postal_code":"63119","latitude":38.568211506,"longitude":-90.3418376,"stars":3,"review_count":9,"is_open":1,"attributes":"","categories":"Hair Salons, Beauty & Spas","hours":null},{"business_id":"VZtD7Dr4naIso_Yri6E0Sw","name":"Merry Maids","address":"78 2nd Ave, Ste 5","city":"Collegeville","state":"PA","postal_code":"19426","latitude":40.1830471,"longitude":-75.4501765,"stars":2,"review_count":9,"is_open":1,"attributes":"","categories":"Home Services, Home Cleaning","hours":{"Monday":"7:0-18:0","Tuesday":"7:0-18:0","Wednesday":"7:0-18:0","Thursday":"7:0-18:0","Friday":"7:0-18:0"}},{"business_id":"91vH6OcQaZl_u5_hxQBasA","name":"Lighting Inc","address":"8180 Earhart Blvd, Ste B-E","city":"New Orleans","state":"LA","postal_code":"70118","latitude":29.9613162,"longitude":-90.1159091,"stars":3,"review_count":9,"is_open":1,"attributes":"","categories":"Home Decor, Heating & Air Conditioning/HVAC, Shopping, Lighting Fixtures & Equipment, Home & Garden, Home Services","hours":{"Monday":"8:30-17:0","Tuesday":"8:30-17:0","Wednesday":"8:30-17:0","Thursday":"8:30-17:0","Friday":"8:30-17:0","Saturday":"9:0-15:0"}},{"business_id":"EJ1r6E92bw7khcMSPH80rA","name":"Circle K","address":"330 Veterans Blvd","city":"Metairie","state":"LA","postal_code":"70005","latitude":30.0003227,"longitude":-90.1265033,"stars":2,"review_count":7,"is_open":1,"attributes":"","categories":"Food, Automotive, Grocery, Convenience Stores, Gas Stations","hours":{"Monday":"0:0-0:0","Tuesday":"0:0-0:0","Wednesday":"0:0-0:0","Thursday":"0:0-0:0","Friday":"0:0-0:0","Saturday":"0:0-0:0","Sunday":"0:0-0:0"}},{"business_id":"qvS9nPLOuyqTUz-scITkXA","name":"Foot Finesse SPA","address":"1474 W Oak St","city":"Zionsville","state":"IN","postal_code":"46077","latitude":39.9508401,"longitude":-86.2808245,"stars":4.5,"review_count":16,"is_open":1,"attributes":"","categories":"Massage, Beauty & Spas","hours":{"Monday":"10:0-21:30","Tuesday":"10:0-21:30","Wednesday":"10:0-21:30","Thursday":"10:0-21:30","Friday":"10:0-21:30","Saturday":"10:0-21:30","Sunday":"10:0-21:30"}},{"business_id":"Ay5X7XJ4wssektLKMfjIWA","name":"Fozzie's Sandwich Emporium","address":"11656 Manchester Rd","city":"Des Peres","state":"MO","postal_code":"63131","latitude":38.5996579,"longitude":-90.4256654,"stars":4,"review_count":87,"is_open":0,"attributes":"","categories":"American (New), Sandwiches, Food, Restaurants","hours":{"Monday":"11:0-20:0","Tuesday":"11:0-20:0","Wednesday":"11:0-20:0","Thursday":"11:0-20:0","Friday":"11:0-20:0","Saturday":"11:0-20:0"}},{"business_id":"FAuIdO5o-HCBi8axoVVkPw","name":"Mesa Fresh Mexican Grill","address":"215 Lancaster Ave","city":"Frazer","state":"PA","postal_code":"19355","latitude":40.0407891,"longitude":-75.5403968,"stars":3,"review_count":5,"is_open":0,"attributes":"","categories":"Mexican, Restaurants","hours":null},{"business_id":"jSpXdE5vuueSMa9vhTQgtA","name":"Apple - Brandon","address":"459 Brandon Town Center Dr","city":"Brandon","state":"FL","postal_code":"33511","latitude":27.933038,"longitude":-82.3265,"stars":3,"review_count":96,"is_open":1,"attributes":"","categories":"Mobile Phones, Electronics, Shopping, Computers, Local Services, IT Services & Computer Repair","hours":{"Monday":"10:0-21:0","Tuesday":"10:0-21:0","Wednesday":"10:0-21:0","Thursday":"10:0-21:0","Friday":"10:0-21:0","Saturday":"10:0-21:0","Sunday":"11:0-18:0"}},{"business_id":"5HehleKDOZFEr8pcCG8ZBw","name":"Sunrise Cafe","address":"6767 W Fairview Ave","city":"Boise","state":"ID","postal_code":"83704","latitude":43.6189269259,"longitude":-116.2655951455,"stars":3.5,"review_count":35,"is_open":1,"attributes":"","categories":"American (Traditional), Restaurants","hours":{"Monday":"6:0-20:0","Tuesday":"6:0-20:0","Wednesday":"6:0-20:0","Thursday":"6:0-20:0","Friday":"6:0-20:0","Saturday":"6:0-20:0","Sunday":"7:0-18:0"}},{"business_id":"EVStC0TESwR26AeqQ-I-EA","name":"Torrid","address":"160 N Gulph Rd, Ste 2064","city":"King of Prussia","state":"PA","postal_code":"19406","latitude":40.0890895978,"longitude":-75.3902674159,"stars":3,"review_count":7,"is_open":1,"attributes":"","categories":"Accessories, Women's Clothing, Plus Size Fashion, Fashion, Shopping","hours":{"Monday":"0:0-0:0","Tuesday":"10:0-18:0","Wednesday":"10:0-18:0","Thursday":"9:0-21:30","Friday":"10:0-21:30","Saturday":"9:0-22:0","Sunday":"10:0-19:0"}},{"business_id":"JjVWAjv9D9NSjTQQ36PD9w","name":"Bastille","address":"1027 Russell Blvd","city":"Saint Louis","state":"MO","postal_code":"63104","latitude":38.6073315,"longitude":-90.2077434,"stars":3.5,"review_count":23,"is_open":1,"attributes":"","categories":"Local Flavor, Bars, Gay Bars, Nightlife","hours":{"Monday":"10:0-1:30","Tuesday":"10:0-1:30","Wednesday":"10:0-1:30","Thursday":"10:0-1:30","Friday":"10:0-1:30","Saturday":"10:0-1:30","Sunday":"10:0-1:30"}},{"business_id":"A96yYigSFkAayfSq_MukXg","name":"Morris Automotive","address":"5406 Murfreesboro Rd","city":"La Vergne","state":"TN","postal_code":"37086","latitude":36.0147,"longitude":-86.5550206,"stars":4.5,"review_count":5,"is_open":1,"attributes":"","categories":"Auto Repair, Oil Change Stations, Automotive, Transmission Repair","hours":{"Monday":"7:0-17:0","Tuesday":"7:0-17:0","Wednesday":"7:0-17:0","Thursday":"7:0-17:0","Friday":"7:0-17:0"}},{"business_id":"aKvowH2UXGvoxJgIRf04Zw","name":"Bernie's Restaurant & Bar - Manayunk","address":"4411 Main St","city":"Philadelphia","state":"PA","postal_code":"19127","latitude":40.026214204,"longitude":-75.2250791341,"stars":2.5,"review_count":40,"is_open":1,"attributes":"","categories":"Restaurants, American (New), Bars, Pubs, Nightlife","hours":{"Monday":"11:30-2:0","Tuesday":"11:30-2:0","Wednesday":"11:30-2:0","Thursday":"11:30-2:0","Friday":"11:30-2:0","Saturday":"10:0-2:0","Sunday":"10:0-2:0"}}]